id_local,desc_distrito_local,distritos_wikidata,desc_barrio_local,barrios_wikidata,direccion,id_direccion,Cod_Postal,coordenada_x_local,id_coordenadas,coordenada_y_local,desc_situacion_local,rotulo,desc_periodo_terraza,desc_situacion_terraza,Superficie_ES,Superficie_RA,desc_ubicacion_terraza,hora_ini_LJ_es,hora_fin_LJ_es,hora_ini_LJ_ra,hora_fin_LJ_ra,hora_ini_VS_es,hora_fin_VS_es,hora_ini_VS_ra,hora_fin_VS_ra,mesas_es,mesas_ra,Latitud,Coordenadas finales,Longitud
270403150,Salamanca,https://www.wikidata.org/wiki/Q1773521,La Guindalera,https://www.wikidata.org/wiki/Q3814559,2 AVENIDA AMERICA,2_AVENIDA_AMERICA,28028,"442586,58","442586,58-4476524,51","4476524,51",Abierto,HONTANARES,Anual,Abierta,"21,06","21,06",Acera,10:00:00,1:00:00,10:00:00,0:00:00,10:00:00,2:30:00,10:00:00,0:00:00,9,9,40.4372892,"40.4372892,-3.6768626",-3.6768626
270078567,Salamanca,https://www.wikidata.org/wiki/Q1773521,La Guindalera,https://www.wikidata.org/wiki/Q3814559,25 CALLE ALONSO HEREDIA,25_CALLE_ALONSO_HEREDIA,28028,"442986,58","442986,58-4476379,5","4476379,5",Abierto,BAR MARISQUERIA LUIS,Anual,Abierta,"11,16","11,16",Calle peatonal,10:00:00,1:00:00,10:00:00,0:00:00,10:00:00,2:30:00,10:00:00,0:00:00,4,0,40.4362426,"40.4362426,-3.6722668",-3.6722668
40002808,Salamanca,https://www.wikidata.org/wiki/Q1773521,Recoletos,https://www.wikidata.org/wiki/Q3814551,14 CALLE AYALA,14_CALLE_AYALA,28001,"441656,59","441656,59-4475470,52","4475470,52",Abierto,WAGABOO,Anual,Abierta,"25,48","25,48",Acera,10:00:00,1:00:00,10:00:00,0:00:00,10:00:00,2:30:00,10:00:00,0:00:00,8,8,40.4278178,"40.4278178,-3.6878586",-3.6878586
270495851,Salamanca,https://www.wikidata.org/wiki/Q1773521,Recoletos,https://www.wikidata.org/wiki/Q3814551,59 CALLE ALCALA,59_CALLE_ALCALA,28014,"441350,59","441350,59-4474585,52","4474585,52",Abierto,THE JAMES JOYCE IRISH PUB,Anual,Abierta,"21,04","21,04",Acera,10:00:00,1:00:00,10:00:00,0:00:00,10:00:00,2:30:00,10:00:00,0:00:00,6,6,40.4198947,"40.4198947,-3.6913659",-3.6913659
180000457,Villa de Vallecas,https://www.wikidata.org/wiki/Q1947988,Casco Histórico de Vallecas,https://www.wikidata.org/wiki/Q16544370,5 PLAZA JUAN DE MALASAÑA,5_PLAZA_JUAN_DE_MALASAÑA,28031,"447240,53","447240,53-4470141,43","4470141,43",Abierto,LA CHOZITA,Anual,Abierta,"84,68","64,99",Plaza peatonal,10:00:00,1:00:00,10:00:00,0:00:00,10:00:00,2:30:00,10:00:00,0:00:00,27,21,40.3802575,"40.3802575,-3.6215824",-3.6215824
270076142,Salamanca,https://www.wikidata.org/wiki/Q1773521,La Guindalera,https://www.wikidata.org/wiki/Q3814559,225 CALLE ALCALA,225_CALLE_ALCALA,28028,"443565,58","443565,58-4475688,49","4475688,49",Abierto,EL NUEVO RINCÓN DE JAÉN,Anual,Abierta,"21,66","21,66",Acera,10:00:00,1:00:00,10:00:00,0:00:00,10:00:00,2:30:00,10:00:00,0:00:00,8,8,40.4299879,"40.4299879,-3.6653141",-3.6653141
270071068,Salamanca,https://www.wikidata.org/wiki/Q1773521,Goya,https://www.wikidata.org/wiki/Q3814578,127 CALLE ALCALA,127_CALLE_ALCALA,28009,"442347,58","442347,58-4474952,51","4474952,51",Abierto,VIENA CAPELLANES,Anual,Abierta,"12,43","12,43",Acera,10:00:00,1:00:00,10:00:00,0:00:00,10:00:00,2:30:00,10:00:00,0:00:00,3,3,40.4232011,"40.4232011,-3.6796572",-3.6796572
180000598,Villa de Vallecas,https://www.wikidata.org/wiki/Q1947988,Casco Histórico de Vallecas,https://www.wikidata.org/wiki/Q16544370,7 CALLE PEÑA DE VARGAS,7_CALLE_PEÑA_DE_VARGAS,28031,"447266,53","447266,53-4469503,43","4469503,43",Abierto,EL RINCON DEL TIO PEPE,Anual,Abierta,"34,07","34,07",Acera,10:00:00,1:00:00,10:00:00,0:00:00,10:00:00,2:30:00,10:00:00,0:00:00,8,8,40.3743845,"40.3743845,-3.6213359",-3.6213359
200000837,San Blas,https://www.wikidata.org/wiki/Q2001937,Simancas,https://www.wikidata.org/wiki/Q10371626,13 CALLE MIERES,13_CALLE_MIERES,28037,"446593,56","446593,56-4475579,45","4475579,45",Abierto,BAR JOSUE,Anual,Abierta,"10,23","10,23",Acera,10:00:00,1:00:00,10:00:00,0:00:00,10:00:00,1:00:00,10:00:00,0:00:00,4,0,40.4290821,"40.4290821,-3.6298464",-3.6298464
280067055,San Blas,https://www.wikidata.org/wiki/Q2001937,Rejas,https://www.wikidata.org/wiki/Q10359029,6 COLONIA OCCIDENTE,6_COLONIA_OCCIDENTE,28022,"449558,56","449558,56-4477260,41","4477260,41",Abierto,RESTAURANTE BAR TORRES,Anual,Abierta,"36,78","36,78",Acera,8:00:00,0:00:00,8:00:00,0:00:00,8:00:00,0:00:00,8:00:00,0:00:00,12,12,40.4444543,"40.4444543,-3.5947535",-3.5947535
270380946,Salamanca,https://www.wikidata.org/wiki/Q1773521,Recoletos,https://www.wikidata.org/wiki/Q3814551,89 CALLE ALCALA,89_CALLE_ALCALA,28009,"441877,58","441877,58-4474703,52","4474703,52",Abierto,EL ARBOL Y LA TOSTA,Anual,Abierta,"5,04","5,04",Acera,10:00:00,1:00:00,10:00:00,0:00:00,10:00:00,2:30:00,10:00:00,0:00:00,3,3,40.4209982,"40.4209982,-3.6852094",-3.6852094
280060978,Villa de Vallecas,https://www.wikidata.org/wiki/Q1947988,Ensanche de Vallecas,https://www.wikidata.org/wiki/Q3847485,44 AVENIDA ENSANCHE DE VALLECAS,44_AVENIDA_ENSANCHE_DE_VALLECAS,28051,"448326,52","448326,52-4468742,41","4468742,41",Abierto,RESTAURANTE 40 & CUATRO,Anual,Abierta,"97,2","97,2",Acera,10:00:00,1:00:00,10:00:00,0:00:00,10:00:00,2:30:00,10:00:00,0:00:00,30,30,40.3674498,"40.3674498,-3.6086818",-3.6086818
270202022,Villa de Vallecas,https://www.wikidata.org/wiki/Q1947988,Casco Histórico de Vallecas,https://www.wikidata.org/wiki/Q16544370,25 CALLE SIERRA GORDA,25_CALLE_SIERRA_GORDA,28031,"447532,53","447532,53-4470237,43","4470237,43",Abierto,BAR-RESTAURANTE,Anual,Abierta,"104,6","60,6",Calle peatonal,10:00:00,1:00:00,10:00:00,0:00:00,10:00:00,2:30:00,10:00:00,0:00:00,30,16,40.3810518,"40.3810518,-3.618109",-3.618109
170001120,Villaverde,https://www.wikidata.org/wiki/Q919536,Butarque,https://www.wikidata.org/wiki/Q390453,11 CALLE BERROCAL,11_CALLE_BERROCAL,28021,"442611,52","442611,52-4466074,49","4466074,49",Abierto,CERVECERIA MINERVA,Anual,Abierta,"28,8","28,8",Acera,8:00:00,1:30:00,8:00:00,0:00:00,8:00:00,1:30:00,8:00:00,0:00:00,8,8,40.3436184,"40.3436184,-3.6758241",-3.6758241
170000836,Villaverde,https://www.wikidata.org/wiki/Q919536,Los Rosales,https://www.wikidata.org/wiki/Q10319807,1 PLAZA CHOZAS DE CANALES,1_PLAZA_CHOZAS_DE_CANALES,28021,"441337,53","441337,53-4467033,5","4467033,5",Abierto,BAR DONDE SIEMPRE,Anual,Abierta,"64,12","64,12",Plaza peatonal,8:00:00,1:30:00,8:00:00,1:00:00,8:00:00,1:30:00,8:00:00,1:00:00,21,21,40.3520375,"40.3520375,-3.6905203",-3.6905203
270228707,Villaverde,https://www.wikidata.org/wiki/Q919536,"Villaverde Alto, Casco Histórico de Villaverde",https://www.wikidata.org/wiki/Q390435,20 PASEO ALBERTO PALACIOS,20_PASEO_ALBERTO_PALACIOS,28021,"439581,54","439581,54-4466421,52","4466421,52",Abierto,BURGUER CAROVI,Anual,Abierta,"29,13","29,13",Acera,8:00:00,1:30:00,8:00:00,1:00:00,8:00:00,1:30:00,8:00:00,1:00:00,10,10,40.3461983,"40.3461983,-3.7114039",-3.7114039
170000967,Villaverde,https://www.wikidata.org/wiki/Q919536,Los Ángeles,https://www.wikidata.org/wiki/Q390462,44 CALLE LA DEL MANOJO DE ROSAS,44_CALLE_LA_DEL_MANOJO_DE_ROSAS,28041,"440773,55","440773,55-4467749,51","4467749,51",Abierto,A GAIVOTIÑA II,Anual,Abierta,"111,3","111,3",Acera,8:00:00,1:30:00,8:00:00,1:00:00,8:00:00,1:30:00,8:00:00,1:00:00,16,10,40.3587386,"40.3587386,-3.6975531",-3.6975531
170000259,Villaverde,https://www.wikidata.org/wiki/Q919536,Los Ángeles,https://www.wikidata.org/wiki/Q390462,2 PASEO TALLERES,2_PASEO_TALLERES,28021,"440572,54","440572,54-4466762,51","4466762,51",Abierto,PEÑA DE FRANCIA,Anual,Abierta,"32,4","32,4",Acera,8:00:00,1:30:00,8:00:00,1:00:00,8:00:00,1:30:00,8:00:00,1:00:00,15,15,40.3492818,"40.3492818,-3.6997832",-3.6997832
270456160,Villaverde,https://www.wikidata.org/wiki/Q919536,"Villaverde Alto, Casco Histórico de Villaverde",https://www.wikidata.org/wiki/Q390435,48 PASEO TALLERES,48_PASEO_TALLERES,28021,"440242,54","440242,54-4466570,51","4466570,51",Abierto,LUCKY,Anual,Abierta,"12,96","7,56",Acera,8:00:00,1:30:00,8:00:00,1:00:00,8:00:00,1:30:00,8:00:00,1:00:00,8,3,40.3475507,"40.3475507,-3.7036659",-3.7036659
170002005,Villaverde,https://www.wikidata.org/wiki/Q919536,Los Ángeles,https://www.wikidata.org/wiki/Q390462,102 CALLE LA DEL MANOJO DE ROSAS,102_CALLE_LA_DEL_MANOJO_DE_ROSAS,28041,"440665,54","440665,54-4467317,51","4467317,51",Abierto,EL KUBO,Anual,Abierta,"127,98","32,97",Plaza peatonal,8:00:00,1:30:00,8:00:00,1:00:00,8:00:00,1:30:00,8:00:00,1:00:00,16,8,40.3540462,"40.3540462,-3.6989981",-3.6989981
270181857,Villaverde,https://www.wikidata.org/wiki/Q919536,"Villaverde Alto, Casco Histórico de Villaverde",https://www.wikidata.org/wiki/Q390435,4 PLAZA MAYOR DE VILLAVERDE,4_PLAZA_MAYOR_DE_VILLAVERDE,28021,"439928,54","439928,54-4466553,51","4466553,51",Abierto,BAR ASTURIAS,Anual,Abierta,"68,4","68,4",Plaza peatonal,8:00:00,1:30:00,8:00:00,1:00:00,8:00:00,1:30:00,8:00:00,1:00:00,22,22,40.3473651,"40.3473651,-3.7072807",-3.7072807
170000257,Villaverde,https://www.wikidata.org/wiki/Q919536,Los Ángeles,https://www.wikidata.org/wiki/Q390462,11 CALLE PAN Y TOROS,11_CALLE_PAN_Y_TOROS,28041,"441020,55","441020,55-4467961,51","4467961,51",Abierto,BAR PEMA,Anual,Abierta,37,37,Acera,8:00:00,1:30:00,8:00:00,1:00:00,8:00:00,1:30:00,8:00:00,1:00:00,11,11,40.3601023,"40.3601023,-3.6945905",-3.6945905
270286727,Villaverde,https://www.wikidata.org/wiki/Q919536,Los Ángeles,https://www.wikidata.org/wiki/Q390462,37 CALLE PAN Y TOROS,37_CALLE_PAN_Y_TOROS,28041,"441052,54","441052,54-4467692,51","4467692,51",Abierto,CASA MONICA,Anual,Abierta,"50,04","50,04",Acera,8:00:00,1:30:00,8:00:00,1:00:00,8:00:00,1:30:00,8:00:00,1:00:00,15,15,40.3577496,"40.3577496,-3.6942988",-3.6942988
180000366,Villa de Vallecas,https://www.wikidata.org/wiki/Q1947988,Santa Eugenia,https://www.wikidata.org/wiki/Q390463,9 CALLE CASTRILLO DE AZA,9_CALLE_CASTRILLO_DE_AZA,28031,"448357,53","448357,53-4470622,41","4470622,41",Abierto,EL JARDIN DEL BACO,Anual,Abierta,"97,56","97,56",Acera,10:00:00,1:00:00,8:00:00,0:00:00,10:00:00,2:30:00,8:00:00,0:00:00,24,24,40.3846688,"40.3846688,-3.6082587",-3.6082587
270324826,Villa de Vallecas,https://www.wikidata.org/wiki/Q1947988,Santa Eugenia,https://www.wikidata.org/wiki/Q390463,10 CALLE PUENTELARRA,10_CALLE_PUENTELARRA,28031,"448373,53","448373,53-4470489,41","4470489,41",Abierto,CERVECERIA LA TOMASA,Anual,Abierta,"48,6","48,6",Acera,10:00:00,1:00:00,10:00:00,0:00:00,10:00:00,2:30:00,10:00:00,0:00:00,15,15,40.3832929,"40.3832929,-3.6084444",-3.6084444
270032503,Villa de Vallecas,https://www.wikidata.org/wiki/Q1947988,Santa Eugenia,https://www.wikidata.org/wiki/Q390463,8 CALLE PUENTELARRA,8_CALLE_PUENTELARRA,28031,"448410,53","448410,53-4470525,41","4470525,41",Abierto,BAR  LA HACIENDA,Anual,Abierta,"83,16","58,32",Acera,10:00:00,1:00:00,10:00:00,0:00:00,10:00:00,2:30:00,10:00:00,0:00:00,24,18,40.3839442,"40.3839442,-3.6079696",-3.6079696
270184841,Villa de Vallecas,https://www.wikidata.org/wiki/Q1947988,Santa Eugenia,https://www.wikidata.org/wiki/Q390463,7 CALLE PUENTELARRA,7_CALLE_PUENTELARRA,28031,"448430,53","448430,53-4470416,41","4470416,41",Abierto,CERVECERIA LA TORRE,Estacional,Abierta,27,"58,32",Acera,10:00:00,1:00:00,8:00:00,1:00:00,10:00:00,2:30:00,8:00:00,1:00:00,10,18,40.3826785,"40.3826785,-3.6077322",-3.6077322
270185092,Villa de Vallecas,https://www.wikidata.org/wiki/Q1947988,Santa Eugenia,https://www.wikidata.org/wiki/Q390463,6 CALLE FUENTESPINA,6_CALLE_FUENTESPINA,28031,"448569,53","448569,53-4470101,41","4470101,41",Abierto,EL JARDIN DE BACO II,Anual,Abierta,"44,38","44,38",Acera,10:00:00,1:00:00,10:00:00,0:00:00,10:00:00,2:30:00,10:00:00,0:00:00,17,17,40.3799453,"40.3799453,-3.6060704",-3.6060704
170000673,Villaverde,https://www.wikidata.org/wiki/Q919536,"Villaverde Alto, Casco Histórico de Villaverde",https://www.wikidata.org/wiki/Q390435,15 PASEO ALBERTO PALACIOS,15_PASEO_ALBERTO_PALACIOS,28021,"439620,54","439620,54-4466399,52","4466399,52",Abierto,D`YISA NAILS,Estacional,Abierta,"25,92","25,92",Calle peatonal,8:00:00,1:30:00,10:00:00,0:00:00,8:00:00,1:30:00,10:00:00,0:00:00,8,8,40.3459361,"40.3459361,-3.7108885",-3.7108885
270456985,Villaverde,https://www.wikidata.org/wiki/Q919536,"Villaverde Alto, Casco Histórico de Villaverde",https://www.wikidata.org/wiki/Q390435,83 PASEO ALBERTO PALACIOS,83_PASEO_ALBERTO_PALACIOS,28021,"439062,54","439062,54-4466077,52","4466077,52",Abierto,LAS BEGONIAS,Anual,Abierta,"99,12","45,75",Acera,8:00:00,1:30:00,8:00:00,1:00:00,8:00:00,1:30:00,8:00:00,1:00:00,25,12,40.3430242,"40.3430242,-3.7174781",-3.7174781
170000832,Villaverde,https://www.wikidata.org/wiki/Q919536,Los Ángeles,https://www.wikidata.org/wiki/Q390462,50 CALLE ARECHAVALETA,50_CALLE_ARECHAVALETA,28041,"440871,54","440871,54-4467123,51","4467123,51",Abierto,BAR CASA CONEL,Anual,Abierta,"37,08","37,08",Acera,8:00:00,1:30:00,8:00:00,1:00:00,8:00:00,1:30:00,8:00:00,1:00:00,4,4,40.3525051,"40.3525051,-3.696296",-3.696296
170001203,Villaverde,https://www.wikidata.org/wiki/Q919536,Butarque,https://www.wikidata.org/wiki/Q390453,4 CALLE CANCHAL,4_CALLE_CANCHAL,28021,"442609,52","442609,52-4466445,49","4466445,49",Abierto,PASTELERIA PANADERIA CAFETERIA CHICO,Anual,Abierta,30,30,Acera,8:00:00,1:30:00,8:00:00,1:00:00,8:00:00,1:30:00,8:00:00,1:00:00,10,0,40.3463908,"40.3463908,-3.6760682",-3.6760682
170000724,Villaverde,https://www.wikidata.org/wiki/Q919536,"Villaverde Alto, Casco Histórico de Villaverde",https://www.wikidata.org/wiki/Q390435,39 PASEO ALBERTO PALACIOS,39_PASEO_ALBERTO_PALACIOS,28021,"439441,54","439441,54-4466238,52","4466238,52",Abierto,BAR LAS NIÑAS,Anual,Abierta,"10,08","10,08",Acera,8:00:00,1:30:00,8:00:00,1:00:00,8:00:00,1:30:00,8:00:00,1:00:00,7,7,40.3445856,"40.3445856,-3.7129706",-3.7129706
270181482,Villaverde,https://www.wikidata.org/wiki/Q919536,"Villaverde Alto, Casco Histórico de Villaverde",https://www.wikidata.org/wiki/Q390435,12 CALLE GRAFITO,12_CALLE_GRAFITO,28021,"439235,54","439235,54-4466441,52","4466441,52",Abierto,BAR MEZQUITA,Anual,Abierta,"31,86","31,86",Zona de estacionamiento,8:00:00,1:30:00,8:00:00,1:00:00,8:00:00,1:30:00,8:00:00,1:00:00,6,3,40.3461872,"40.3461872,-3.7155077",-3.7155077
170000308,Villaverde,https://www.wikidata.org/wiki/Q919536,"Villaverde Alto, Casco Histórico de Villaverde",https://www.wikidata.org/wiki/Q390435,45 CALLE ALCOCER,45_CALLE_ALCOCER,28021,"440117,54","440117,54-4466833,51","4466833,51",Abierto,BAR RENATO,Anual,Abierta,"98,81","98,81",Bulevar,8:00:00,1:30:00,8:00:00,1:00:00,8:00:00,1:30:00,8:00:00,1:00:00,22,22,40.3497618,"40.3497618,-3.7055715",-3.7055715
270020492,Villaverde,https://www.wikidata.org/wiki/Q919536,San Cristóbal,https://www.wikidata.org/wiki/Q390457,95 CALLE BENIMAMET,95_CALLE_BENIMAMET,28021,"441813,52","441813,52-4466134,5","4466134,5",Abierto,PEREZ CAFETERIA,Anual,Abierta,"19,44","10,8",Acera,8:00:00,1:30:00,8:00:00,1:00:00,8:00:00,1:30:00,8:00:00,1:00:00,6,6,40.343777,"40.343777,-3.6850876",-3.6850876
270539656,Villaverde,https://www.wikidata.org/wiki/Q919536,Butarque,https://www.wikidata.org/wiki/Q390453,3 CALLE BERROCAL,3_CALLE_BERROCAL,28021,"442506,52","442506,52-4466515,49","4466515,49",Abierto,100 MONTADITOS,Anual,Abierta,"72,5","72,5",Acera,8:00:00,1:30:00,8:00:00,1:00:00,8:00:00,1:30:00,8:00:00,1:00:00,21,21,40.3474728,"40.3474728,-3.6770211",-3.6770211
270183511,Villaverde,https://www.wikidata.org/wiki/Q919536,Los Ángeles,https://www.wikidata.org/wiki/Q390462,1 CALLE HERMANDAD DE DONANTES DE SANGRE,1_CALLE_HERMANDAD_DE_DONANTES_DE_SANGRE,28041,"440611,54","440611,54-4467373,51","4467373,51",Abierto,RESTAURANTE GALLARDO,Anual,Abierta,"51,84","51,84",Acera,8:00:00,1:30:00,8:00:00,1:00:00,8:00:00,1:30:00,8:00:00,1:00:00,16,16,40.3547921,"40.3547921,-3.6993111",-3.6993111
170000123,Villaverde,https://www.wikidata.org/wiki/Q919536,Los Ángeles,https://www.wikidata.org/wiki/Q390462,2 CALLE LA CANCION DEL OLVIDO,2_CALLE_LA_CANCION_DEL_OLVIDO,28041,"440699,55","440699,55-4468091,51","4468091,51",Abierto,ALQUEZAR LA BODEGA DE COTE,Anual,Abierta,72,72,Acera,8:00:00,1:30:00,8:00:00,1:00:00,8:00:00,1:30:00,8:00:00,1:00:00,20,20,40.3612623,"40.3612623,-3.6984203",-3.6984203
270314735,Villaverde,https://www.wikidata.org/wiki/Q919536,Butarque,https://www.wikidata.org/wiki/Q390453,94 AVENIDA LOS ROSALES,94_AVENIDA_LOS_ROSALES,28021,"442293,53","442293,53-4467170,49","4467170,49",Abierto,RESTAURANTE SALINAS PROSPERIDAD III,Anual,Abierta,"90,57","90,57",Otros,8:00:00,1:30:00,8:00:00,1:00:00,8:00:00,1:30:00,8:00:00,1:00:00,14,8,40.35308,"40.35308,-3.67949",-3.67949
170000009,Villaverde,https://www.wikidata.org/wiki/Q919536,Los Ángeles,https://www.wikidata.org/wiki/Q390462,78 CALLE LA DEL MANOJO DE ROSAS,78_CALLE_LA_DEL_MANOJO_DE_ROSAS,28041,"440729,54","440729,54-4467406,51","4467406,51",Abierto,JOSE,Anual,Abierta,27,27,Acera,8:00:00,1:30:00,8:00:00,1:00:00,8:00:00,1:30:00,8:00:00,1:00:00,7,7,40.3552355,"40.3552355,-3.6979271",-3.6979271
270182385,Villaverde,https://www.wikidata.org/wiki/Q919536,Los Rosales,https://www.wikidata.org/wiki/Q10319807,48 CALLE SAHARA,48_CALLE_SAHARA,28041,"441185,54","441185,54-4467321,51","4467321,51",Abierto,EL PORTON,Anual,Abierta,"99,77","99,77",Otros,8:00:00,1:30:00,8:00:00,1:00:00,8:00:00,1:30:00,8:00:00,1:00:00,21,21,40.354424,"40.354424,-3.6926131",-3.6926131
270418033,Villaverde,https://www.wikidata.org/wiki/Q919536,Los Rosales,https://www.wikidata.org/wiki/Q10319807,6 PLAZA CHOZAS DE CANALES,6_PLAZA_CHOZAS_DE_CANALES,28021,"441338,53","441338,53-4467062,5","4467062,5",Abierto,PLAZA II,Anual,Abierta,"32,4","32,4",Plaza peatonal,8:00:00,1:30:00,8:00:00,1:00:00,8:00:00,1:30:00,8:00:00,1:00:00,18,18,40.3520531,"40.3520531,-3.6907345",-3.6907345
270033353,Villaverde,https://www.wikidata.org/wiki/Q919536,San Cristóbal,https://www.wikidata.org/wiki/Q390457,9 CALLE ROCAFORT,9_CALLE_ROCAFORT,28021,"441482,52","441482,52-4465904,5","4465904,5",Abierto,BAR PIRATA,Anual,Abierta,77,77,Plaza peatonal,8:00:00,1:30:00,8:00:00,1:00:00,8:00:00,1:30:00,8:00:00,1:00:00,21,21,40.3415608,"40.3415608,-3.6899947",-3.6899947
20000100,Arganzuela,https://www.wikidata.org/wiki/Q2000929,La Chopera,https://www.wikidata.org/wiki/Q3773750,132 PASEO DELICIAS,132_PASEO_DELICIAS,28045,"441013,58","441013,58-4471631,52","4471631,52",Abierto,CERVECERIA LA LASTRA,Anual,Abierta,"17,36","17,36",Acera,10:00:00,1:00:00,10:00:00,0:00:00,10:00:00,2:30:00,10:00:00,0:00:00,6,6,40.39325,"40.39325,-3.695",-3.695
20000172,Arganzuela,https://www.wikidata.org/wiki/Q2000929,Palos de Moguer,https://www.wikidata.org/wiki/Q521009,28 CALLE ANCORA,28_CALLE_ANCORA,28045,"441427,58","441427,58-4472681,52","4472681,52",Abierto,BAR SORIA,Anual,Abierta,"37,41","37,41",Acera,10:00:00,1:00:00,10:00:00,0:00:00,10:00:00,2:30:00,10:00:00,0:00:00,9,0,40.4026573,"40.4026573,-3.6903342",-3.6903342
20001101,Arganzuela,https://www.wikidata.org/wiki/Q2000929,Imperial,https://www.wikidata.org/wiki/Q3773740,53 PASEO IMPERIAL,53_PASEO_IMPERIAL,28005,"439273,59","439273,59-4472845,53","4472845,53",Abierto,CERVECERIA CANTALEJO RESTAURANTE,Anual,Abierta,"47,81","47,81",Acera,10:00:00,1:00:00,10:00:00,0:00:00,10:00:00,2:30:00,10:00:00,0:00:00,17,0,40.4040102,"40.4040102,-3.7156435",-3.7156435
270267597,Arganzuela,https://www.wikidata.org/wiki/Q2000929,La Chopera,https://www.wikidata.org/wiki/Q3773750,11 CALLE JAIME EL CONQUISTADOR,11_CALLE_JAIME_EL_CONQUISTADOR,28045,"440774,58","440774,58-4472081,52","4472081,52",Abierto,BAR ORENSE,Anual,Abierta,"12,96","12,96",Acera,10:00:00,1:00:00,10:00:00,0:00:00,10:00:00,2:30:00,10:00:00,0:00:00,4,4,40.3973033,"40.3973033,-3.6978569",-3.6978569
20001080,Arganzuela,https://www.wikidata.org/wiki/Q2000929,La Chopera,https://www.wikidata.org/wiki/Q3773750,15 CALLE JAIME EL CONQUISTADOR,15_CALLE_JAIME_EL_CONQUISTADOR,28045,"440768,58","440768,58-4472030,52","4472030,52",Abierto,BAR EL CONQUISTADOR,Anual,Abierta,"37,87","37,87",Acera,10:00:00,1:00:00,10:00:00,0:00:00,10:00:00,2:30:00,10:00:00,0:00:00,12,0,40.3966926,"40.3966926,-3.6979481",-3.6979481
270055919,Arganzuela,https://www.wikidata.org/wiki/Q2000929,La Chopera,https://www.wikidata.org/wiki/Q3773750,29 CALLE JAIME EL CONQUISTADOR,29_CALLE_JAIME_EL_CONQUISTADOR,28045,"440749,58","440749,58-4471854,52","4471854,52",Abierto,CAFETERIA LOA,Anual,Abierta,"27,93","27,93",Acera,10:00:00,1:00:00,10:00:00,0:00:00,10:00:00,2:30:00,10:00:00,0:00:00,8,0,40.3950764,"40.3950764,-3.6981729",-3.6981729
200001508,San Blas,https://www.wikidata.org/wiki/Q2001937,Simancas,https://www.wikidata.org/wiki/Q10371626,49 CALLE VALDECANILLAS,49_CALLE_VALDECANILLAS,28037,"446973,56","446973,56-4475983,45","4475983,45",Abierto,LA SEDE D'ANDRUBEN,Anual,Abierta,"45,22","45,22",Acera,8:00:00,1:30:00,8:00:00,1:00:00,8:00:00,1:30:00,8:00:00,1:00:00,14,14,40.4327542,"40.4327542,-3.625062",-3.625062
270458555,Usera,https://www.wikidata.org/wiki/Q953368,Moscardó,https://www.wikidata.org/wiki/Q11937679,14 CALLE EUGENIO CAXES,14_CALLE_EUGENIO_CAXES,28026,"440325,58","440325,58-4471467,52","4471467,52",Abierto,"EL RINCON DE SIXTO,",Anual,Abierta,"39,06","39,06",Acera,10:00:00,1:00:00,10:00:00,0:00:00,10:00:00,1:30:00,10:00:00,0:00:00,11,20,40.3917597,"40.3917597,-3.7029689",-3.7029689
270524837,Usera,https://www.wikidata.org/wiki/Q953368,Moscardó,https://www.wikidata.org/wiki/Q11937679,137 CALLE ANTONIO LOPEZ,137_CALLE_ANTONIO_LOPEZ,28026,"440615,58","440615,58-4471127,52","4471127,52",Abierto,BAR RESTAURANTE,Anual,Abierta,"31,35","31,35",Acera,8:00:00,1:30:00,8:00:00,1:00:00,8:00:00,1:30:00,8:00:00,1:00:00,6,6,40.38862,"40.38862,-3.6996511",-3.6996511
270228855,Usera,https://www.wikidata.org/wiki/Q953368,Moscardó,https://www.wikidata.org/wiki/Q11937679,39 CALLE MIRASIERRA,39_CALLE_MIRASIERRA,28026,"440269,58","440269,58-4471097,52","4471097,52",Abierto,BAR ALFIL,Estacional,Abierta,"32,61","32,4",Acera,10:00:00,1:00:00,10:00:00,0:00:00,10:00:00,1:30:00,10:00:00,0:00:00,10,10,40.38829,"40.38829,-3.70368",-3.70368
270157776,Usera,https://www.wikidata.org/wiki/Q953368,Pradolongo,https://www.wikidata.org/wiki/Q10352360,50 CALLE DOLORES BARRANCO,50_CALLE_DOLORES_BARRANCO,28026,"439993,58","439993,58-4470543,52","4470543,52",Abierto,BAR PISCIS,Anual,Abierta,"20,77","20,77",Acera,10:00:00,0:00:00,10:00:00,0:00:00,10:00:00,1:30:00,10:00:00,0:00:00,10,10,40.3833717,"40.3833717,-3.7068248",-3.7068248
270438751,Usera,https://www.wikidata.org/wiki/Q953368,Moscardó,https://www.wikidata.org/wiki/Q11937679,131 CALLE ANTONIO LOPEZ,131_CALLE_ANTONIO_LOPEZ,28026,"440593,58","440593,58-4471152,52","4471152,52",Abierto,LA ALEGRIA,Anual,Abierta,"20,52","20,52",Acera,10:00:00,1:00:00,10:00:00,0:00:00,10:00:00,2:30:00,10:00:00,0:00:00,5,5,40.3889311,"40.3889311,-3.7000055",-3.7000055
270477281,Usera,https://www.wikidata.org/wiki/Q953368,San Fermín (Madrid),https://www.wikidata.org/wiki/Q71758,27 CALLE SAN FORTUNATO,27_CALLE_SAN_FORTUNATO,28041,"441484,56","441484,56-4469450,51","4469450,51",Abierto,CAFE BAR MARTIN,Anual,Abierta,"15,84","15,84",Acera,10:00:00,1:00:00,10:00:00,0:00:00,10:00:00,2:30:00,10:00:00,0:00:00,6,6,40.3736035,"40.3736035,-3.6894042",-3.6894042
270309378,Arganzuela,https://www.wikidata.org/wiki/Q2000929,Las Acacias,https://www.wikidata.org/wiki/Q3319190,3 PASEO ACACIAS,3_PASEO_ACACIAS,28005,"440297,59","440297,59-4472901,53","4472901,53",Abierto,CAFETERIA HINOJAR,Anual,Abierta,"18,9","18,9",Acera,10:00:00,1:00:00,10:00:00,0:00:00,10:00:00,2:30:00,10:00:00,0:00:00,10,0,40.4044814,"40.4044814,-3.703629",-3.703629
285031450,Villaverde,https://www.wikidata.org/wiki/Q919536,"Villaverde Alto, Casco Histórico de Villaverde",https://www.wikidata.org/wiki/Q390435,1 CALLE BERZOSA DE LOZOYA,1_CALLE_BERZOSA_DE_LOZOYA,28021,"439207,53","439207,53-4465219,52","4465219,52",Abierto,DON GERMAN,Anual,Abierta,"50,86","50,86",Acera,10:00:00,0:00:00,10:00:00,0:00:00,10:00:00,0:00:00,10:00:00,0:00:00,12,12,40.3349666,"40.3349666,-3.7157358",-3.7157358
170000809,Villaverde,https://www.wikidata.org/wiki/Q919536,Butarque,https://www.wikidata.org/wiki/Q390453,3 CALLE CANCHAL,3_CALLE_CANCHAL,28021,"442621,52","442621,52-4466379,49","4466379,49",Abierto,RESTAURANTE PARQUE ROSALES CERVECERIA,Anual,Abierta,"55,43","44,1",Acera,10:00:00,0:00:00,10:00:00,0:00:00,10:00:00,0:00:00,10:00:00,0:00:00,21,12,40.3459197,"40.3459197,-3.6758085",-3.6758085
285021312,Usera,https://www.wikidata.org/wiki/Q953368,Moscardó,https://www.wikidata.org/wiki/Q11937679,212 AVENIDA MANZANARES,212_AVENIDA_MANZANARES,28026,"440579,58","440579,58-4471302,52","4471302,52",Abierto,EL BAR,Anual,Abierta,"8,47","8,47",Acera,10:00:00,1:00:00,10:00:00,0:00:00,10:00:00,2:30:00,10:00:00,0:00:00,5,5,40.3900775,"40.3900775,-3.700175",-3.700175
270519524,Moncloa-Aravaca,https://www.wikidata.org/wiki/Q2017682,Argüelles,https://www.wikidata.org/wiki/Q64874,11 CALLE MARTIN DE LOS HEROS,11_CALLE_MARTIN_DE_LOS_HEROS,28008,"439456,6","439456,6-4475119,54","4475119,54",Abierto,8 1/2 LIBROS DE CINE,Anual,Abierta,"19,46","19,46",Acera,10:00:00,1:00:00,10:00:00,0:00:00,10:00:00,2:30:00,10:00:00,0:00:00,8,8,40.424505,"40.424505,-3.7138027",-3.7138027
270540061,Usera,https://www.wikidata.org/wiki/Q953368,Almendrales,https://www.wikidata.org/wiki/Q9604761,201 CALLE ANTONIO LOPEZ,201_CALLE_ANTONIO_LOPEZ,28026,"440957,57","440957,57-4470488,52","4470488,52",Abierto,MONTEFERRO,Anual,Abierta,"65,55","65,55",Zona de estacionamiento,8:00:00,1:30:00,8:00:00,1:00:00,8:00:00,1:30:00,8:00:00,1:00:00,18,18,40.382861,"40.382861,-3.6954085",-3.6954085
270417284,Usera,https://www.wikidata.org/wiki/Q953368,Almendrales,https://www.wikidata.org/wiki/Q9604761,204 CALLE ANTONIO LOPEZ,204_CALLE_ANTONIO_LOPEZ,28026,"440752,58","440752,58-4470914,52","4470914,52",Abierto,CAFETERIA 204,Anual,Abierta,"51,3","51,3",Acera,10:00:00,1:00:00,10:00:00,0:00:00,10:00:00,2:30:00,10:00:00,0:00:00,15,15,40.386735,"40.386735,-3.6980444",-3.6980444
270534735,Usera,https://www.wikidata.org/wiki/Q953368,San Fermín (Madrid),https://www.wikidata.org/wiki/Q71758,16 AVENIDA LOS ROSALES,16_AVENIDA_LOS_ROSALES,28041,"441235,55","441235,55-4468763,51","4468763,51",Abierto,PARRILLA BONALMA,Anual,Abierta,"22,8","22,8",Acera,10:00:00,1:00:00,10:00:00,0:00:00,10:00:00,1:30:00,10:00:00,0:00:00,7,8,40.367247,"40.367247,-3.6912318",-3.6912318
270156329,Usera,https://www.wikidata.org/wiki/Q953368,Moscardó,https://www.wikidata.org/wiki/Q11937679,1 CALLE DOLORES SOPEÑA,1_CALLE_DOLORES_SOPEÑA,28026,"439941,59","439941,59-4471234,53","4471234,53",Abierto,BAR LUZON,Anual,Abierta,"48,59","48,59",Acera,10:00:00,1:00:00,10:00:00,0:00:00,10:00:00,2:30:00,10:00:00,0:00:00,15,15,40.3895684,"40.3895684,-3.7077168",-3.7077168
270280806,Villaverde,https://www.wikidata.org/wiki/Q919536,Los Ángeles,https://www.wikidata.org/wiki/Q390462,12 CALLE BOHEMIOS,12_CALLE_BOHEMIOS,28041,"440867,54","440867,54-4467567,51","4467567,51",Abierto,VENTA CARMONA,Anual,Abierta,"64,03","64,03",Calle peatonal,8:00:00,1:30:00,8:00:00,1:00:00,8:00:00,1:30:00,8:00:00,1:00:00,16,16,40.3566286,"40.3566286,-3.6963796",-3.6963796
270471784,Villaverde,https://www.wikidata.org/wiki/Q919536,Los Ángeles,https://www.wikidata.org/wiki/Q390462,1 CALLE LA CANCION DEL OLVIDO,1_CALLE_LA_CANCION_DEL_OLVIDO,28041,"440717,55","440717,55-4468045,51","4468045,51",Abierto,BAR CASA MONICA,Anual,Abierta,"195,7","195,7",Superficie en parcela privada,8:00:00,1:30:00,8:00:00,1:00:00,8:00:00,1:30:00,8:00:00,1:00:00,29,29,40.3608313,"40.3608313,-3.6981236",-3.6981236
270191062,Villaverde,https://www.wikidata.org/wiki/Q919536,Los Ángeles,https://www.wikidata.org/wiki/Q390462,11 CALLE LA DOLOROSA,11_CALLE_LA_DOLOROSA,28041,"441064,54","441064,54-4467352,51","4467352,51",Abierto,EL PILAR,Anual,Abierta,"86,68","86,68",Otros,8:00:00,1:30:00,8:00:00,1:00:00,8:00:00,1:30:00,8:00:00,1:00:00,30,30,40.3546336,"40.3546336,-3.6940411",-3.6940411
170000796,Villaverde,https://www.wikidata.org/wiki/Q919536,Los Ángeles,https://www.wikidata.org/wiki/Q390462,37 CALLE PAN Y TOROS,37_CALLE_PAN_Y_TOROS,28041,"441057,54","441057,54-4467705,51","4467705,51",Abierto,BAR EL RINCON DEL QUIJOTE,Anual,Abierta,"53,2","21,6",Acera,8:00:00,1:30:00,8:00:00,1:00:00,8:00:00,1:30:00,8:00:00,1:00:00,15,5,40.3577496,"40.3577496,-3.6942988",-3.6942988
270250040,Villaverde,https://www.wikidata.org/wiki/Q919536,Los Rosales,https://www.wikidata.org/wiki/Q10319807,50 CALLE SAHARA,50_CALLE_SAHARA,28041,"441207,54","441207,54-4467290,51","4467290,51",Abierto,DI MADRID,Anual,Abierta,"231,32",231,Otros,8:00:00,1:30:00,8:00:00,1:00:00,8:00:00,1:30:00,8:00:00,1:00:00,38,8,40.3540408,"40.3540408,-3.6920948",-3.6920948
270033525,Villaverde,https://www.wikidata.org/wiki/Q919536,Los Rosales,https://www.wikidata.org/wiki/Q10319807,56 CALLE SAHARA,56_CALLE_SAHARA,28041,"441188,54","441188,54-4467238,51","4467238,51",Abierto,EL ZAGUAN,Anual,Abierta,"125,37","125,37",Plaza peatonal,8:00:00,1:30:00,8:00:00,1:00:00,8:00:00,1:30:00,8:00:00,1:00:00,20,20,40.3535405,"40.3535405,-3.6924294",-3.6924294
170000283,Villaverde,https://www.wikidata.org/wiki/Q919536,Los Rosales,https://www.wikidata.org/wiki/Q10319807,63 CALLE VILLAJOYOSA,63_CALLE_VILLAJOYOSA,28041,"441323,54","441323,54-4467541,51","4467541,51",Abierto,LA BODEGUILLA IBERICA,Anual,Abierta,"39,64","39,64",Acera,8:00:00,1:30:00,8:00:00,1:00:00,8:00:00,1:30:00,8:00:00,1:00:00,8,8,40.3563087,"40.3563087,-3.6909919",-3.6909919
270183106,Villaverde,https://www.wikidata.org/wiki/Q919536,Los Ángeles,https://www.wikidata.org/wiki/Q390462,38 CALLE VIRGEN DE LOS DESAMPARADOS,38_CALLE_VIRGEN_DE_LOS_DESAMPARADOS,28041,"440620,54","440620,54-4466862,51","4466862,51",Abierto,BAR JOSE LUIS,Anual,Abierta,"31,34",20,Acera,8:00:00,1:30:00,8:00:00,1:00:00,8:00:00,1:30:00,8:00:00,1:00:00,11,5,40.3503058,"40.3503058,-3.6992855",-3.6992855
270057250,Arganzuela,https://www.wikidata.org/wiki/Q2000929,Las Delicias,https://www.wikidata.org/wiki/Q3773736,19 CALLE FERROCARRIL,19_CALLE_FERROCARRIL,28045,"440931,58","440931,58-4472464,52","4472464,52",Abierto,CAFETERIA FERROCARRIL,Anual,Abierta,"44,64","44,64",Acera,10:00:00,1:00:00,10:00:00,0:00:00,10:00:00,2:30:00,10:00:00,0:00:00,14,14,40.4007082,"40.4007082,-3.6959416",-3.6959416
280017278,Arganzuela,https://www.wikidata.org/wiki/Q2000929,La Chopera,https://www.wikidata.org/wiki/Q3773750,1 PLAZA GENERAL MAROTO,1_PLAZA_GENERAL_MAROTO,28045,"440739,58","440739,58-4471734,52","4471734,52",Abierto,RESTARAURANTE  O'PORTIÑO,Anual,Abierta,"94,07","94,07",Acera,10:00:00,1:00:00,10:00:00,0:00:00,10:00:00,2:30:00,10:00:00,0:00:00,26,26,40.3941922,"40.3941922,-3.6980642",-3.6980642
280018318,Arganzuela,https://www.wikidata.org/wiki/Q2000929,Las Acacias,https://www.wikidata.org/wiki/Q3319190,33 CALLE LAUREL,33_CALLE_LAUREL,28005,"440313,59","440313,59-4472551,53","4472551,53",Abierto,LA MARGHERITA,Anual,Abierta,"90,72","90,72",Bulevar,8:00:00,1:30:00,8:00:00,1:00:00,8:00:00,1:30:00,8:00:00,1:00:00,28,28,40.4018723,"40.4018723,-3.7039117",-3.7039117
270299459,Arganzuela,https://www.wikidata.org/wiki/Q2000929,Imperial,https://www.wikidata.org/wiki/Q3773740,18 CALLE LINNEO,18_CALLE_LINNEO,28005,"438859,6","438859,6-4473750,54","4473750,54",Abierto,RESTAURANTE LA POTA DOURO,Anual,Abierta,"4,68","4,68",Acera,10:00:00,1:00:00,10:00:00,0:00:00,10:00:00,2:30:00,10:00:00,0:00:00,2,0,40.4121888,"40.4121888,-3.7206067",-3.7206067
10003543,Centro,https://www.wikidata.org/wiki/Q1763376,Palacio,https://www.wikidata.org/wiki/Q2136510,8 PLAZA PUERTA DE MOROS,8_PLAZA_PUERTA_DE_MOROS,28005,"439691,59","439691,59-4473697,53","4473697,53",Abierto,CAÑAS Y TAPAS,Anual,Abierta,"39,57","39,57",Acera,10:00:00,0:00:00,10:00:00,23:00:00,10:00:00,1:30:00,10:00:00,23:00:00,14,14,40.4116549,"40.4116549,-3.7108264",-3.7108264
170000611,Villaverde,https://www.wikidata.org/wiki/Q919536,Los Rosales,https://www.wikidata.org/wiki/Q10319807,46 AVENIDA OROVILLA,46_AVENIDA_OROVILLA,28041,"441416,54","441416,54-4467977,51","4467977,51",Abierto,CAFETERIA BAR LINEA 123,Anual,Abierta,"41,76","23,2",Acera,8:00:00,1:30:00,8:00:00,1:00:00,8:00:00,1:30:00,8:00:00,1:00:00,14,14,40.3602286,"40.3602286,-3.6899387",-3.6899387
170000543,Villaverde,https://www.wikidata.org/wiki/Q919536,"Villaverde Alto, Casco Histórico de Villaverde",https://www.wikidata.org/wiki/Q390435,7 CALLE ARROYO BUENO,7_CALLE_ARROYO_BUENO,28021,"440080,54","440080,54-4466690,51","4466690,51",Abierto,BAR UNO,Anual,Abierta,"34,74","6,48",Acera,8:00:00,1:30:00,8:00:00,1:00:00,8:00:00,1:30:00,8:00:00,1:00:00,10,2,40.3487344,"40.3487344,-3.7056571",-3.7056571
170001122,Villaverde,https://www.wikidata.org/wiki/Q919536,Butarque,https://www.wikidata.org/wiki/Q390453,12 CALLE BERROCAL,12_CALLE_BERROCAL,28021,"442448,52","442448,52-4466571,49","4466571,49",Abierto,CAFETERIA,Anual,Abierta,"19,08","19,08",Acera,8:00:00,1:30:00,8:00:00,1:00:00,8:00:00,1:30:00,8:00:00,1:00:00,7,7,40.3474527,"40.3474527,-3.6776551",-3.6776551
270422013,Villaverde,https://www.wikidata.org/wiki/Q919536,Los Ángeles,https://www.wikidata.org/wiki/Q390462,4 CALLE ESCORIAZA,4_CALLE_ESCORIAZA,28041,"440999,54","440999,54-4466978,51","4466978,51",Abierto,CAFETERIA OBREGON,Anual,Abierta,"46,08","46,08",Calle peatonal,8:00:00,1:30:00,8:00:00,1:00:00,8:00:00,1:30:00,8:00:00,1:00:00,10,10,40.3512621,"40.3512621,-3.6947656",-3.6947656
170000830,Villaverde,https://www.wikidata.org/wiki/Q919536,"Villaverde Alto, Casco Histórico de Villaverde",https://www.wikidata.org/wiki/Q390435,18 PASEO ALBERTO PALACIOS,18_PASEO_ALBERTO_PALACIOS,28021,"439607,54","439607,54-4466442,52","4466442,52",Cerrado,EL CUERPO DEL DESEO,Anual,Abierta,"12,96","12,96",Acera,8:00:00,1:30:00,8:00:00,1:00:00,8:00:00,1:30:00,8:00:00,1:00:00,4,4,40.3465076,"40.3465076,-3.7110669",-3.7110669
170000004,Villaverde,https://www.wikidata.org/wiki/Q919536,Los Ángeles,https://www.wikidata.org/wiki/Q390462,6 CALLE PAN Y TOROS,6_CALLE_PAN_Y_TOROS,28041,"440989,55","440989,55-4467995,51","4467995,51",Abierto,A'GAIVOTIÑA II,Anual,Abierta,"65,01","65,01",Otros,8:00:00,1:30:00,8:00:00,1:00:00,8:00:00,1:30:00,8:00:00,1:00:00,16,16,40.3603534,"40.3603534,-3.6950122",-3.6950122
270182085,Villaverde,https://www.wikidata.org/wiki/Q919536,San Cristóbal,https://www.wikidata.org/wiki/Q390457,121 CALLE ROCAFORT,121_CALLE_ROCAFORT,28021,"441710,52","441710,52-4466005,5","4466005,5",Abierto,RESTAURANTE AL JAWHARA,Anual,Abierta,"9,72","9,72",Acera,8:00:00,1:30:00,8:00:00,1:00:00,8:00:00,1:30:00,8:00:00,1:00:00,3,3,40.3426135,"40.3426135,-3.6862493",-3.6862493
270077611,Salamanca,https://www.wikidata.org/wiki/Q1773521,La Guindalera,https://www.wikidata.org/wiki/Q3814559,69 AVENIDA BRUSELAS,69_AVENIDA_BRUSELAS,28028,"443736,58","443736,58-4477000,49","4477000,49",Abierto,LA PICOTERA,Anual,Abierta,"82,1","82,1",Acera,10:00:00,1:00:00,10:00:00,0:00:00,10:00:00,2:30:00,10:00:00,0:00:00,22,22,40.4416859,"40.4416859,-3.663371",-3.663371
270322801,Usera,https://www.wikidata.org/wiki/Q953368,San Fermín (Madrid),https://www.wikidata.org/wiki/Q71758,104 CAMINO PERALES,104_CAMINO_PERALES,28041,"441462,56","441462,56-4469556,51","4469556,51",Abierto,BAR PELAEZ,Anual,Abierta,"25,92","25,92",Acera,10:00:00,1:00:00,10:00:00,0:00:00,10:00:00,2:30:00,10:00:00,0:00:00,8,8,40.3745066,"40.3745066,-3.6895158",-3.6895158
120000552,Usera,https://www.wikidata.org/wiki/Q953368,Orcasitas,https://www.wikidata.org/wiki/Q3773941,315 CALLE GAINZA,315_CALLE_GAINZA,28041,"439179,56","439179,56-4468638,53","4468638,53",Abierto,O TOUXEIRO,Anual,Abierta,"102,49","102,49",Plaza peatonal,10:00:00,1:00:00,10:00:00,0:00:00,10:00:00,1:30:00,10:00:00,0:00:00,25,25,40.3660268,"40.3660268,-3.7164006",-3.7164006
120000138,Usera,https://www.wikidata.org/wiki/Q953368,El Zofío,https://www.wikidata.org/wiki/Q71751,12 AVENIDA RAFAELA YBARRA,12_AVENIDA_RAFAELA_YBARRA,28026,"439617,58","439617,58-4470436,53","4470436,53",Abierto,XALLAS,Anual,Abierta,"2,88","2,88",Acera,10:00:00,1:00:00,10:00:00,0:00:00,10:00:00,2:30:00,10:00:00,0:00:00,2,2,40.3823205,"40.3823205,-3.711394",-3.711394
280064620,Moratalaz,https://www.wikidata.org/wiki/Q2076109,Media Legua,https://www.wikidata.org/wiki/Q9031035,25 CALLE CORREGIDOR DIEGO DE VALDERRABANO,25_CALLE_CORREGIDOR_DIEGO_DE_VALDERRABANO,28030,"444144,57","444144,57-4473666,48","4473666,48",Abierto,CERVECERIA 100 MONTADITOS,Anual,Abierta,"41,36","41,36",Acera,10:00:00,0:00:00,10:00:00,23:00:00,10:00:00,1:00:00,10:00:00,23:00:00,12,12,40.4118585,"40.4118585,-3.6583575",-3.6583575
170000961,Villaverde,https://www.wikidata.org/wiki/Q919536,Butarque,https://www.wikidata.org/wiki/Q390453,5 CALLE BERROCAL,5_CALLE_BERROCAL,28021,"442522,52","442522,52-4466428,49","4466428,49",Abierto,SIDRERIA DEL NORTE,Anual,Abierta,"69,52","69,52",Acera,8:00:00,1:30:00,8:00:00,1:00:00,8:00:00,1:30:00,8:00:00,1:00:00,19,19,40.3469354,"40.3469354,-3.6768668",-3.6768668
270448230,Villaverde,https://www.wikidata.org/wiki/Q919536,San Cristóbal,https://www.wikidata.org/wiki/Q390457,115 CALLE GODELLA,115_CALLE_GODELLA,28021,"441559,52","441559,52-4465840,5","4465840,5",Abierto,CAFETERIA BAR JUANJO Y JOSE,Anual,Abierta,"18,18","18,18",Acera,8:00:00,1:30:00,8:00:00,1:00:00,8:00:00,1:30:00,8:00:00,1:00:00,7,7,40.3410961,"40.3410961,-3.6880563",-3.6880563
270547589,Villaverde,https://www.wikidata.org/wiki/Q919536,Butarque,https://www.wikidata.org/wiki/Q390453,12 CALLE BARIO,12_CALLE_BARIO,28021,"442441,52","442441,52-4466609,49","4466609,49",Abierto,BAR RESTAURANTE VITA KR,Anual,Abierta,"23,4","23,4",Acera,8:00:00,1:30:00,8:00:00,1:00:00,8:00:00,1:30:00,8:00:00,1:00:00,10,10,40.3480704,"40.3480704,-3.6777659",-3.6777659
170000406,Villaverde,https://www.wikidata.org/wiki/Q919536,Los Rosales,https://www.wikidata.org/wiki/Q10319807,59 AVENIDA OROVILLA,59_AVENIDA_OROVILLA,28041,"441482,54","441482,54-4467704,5","4467704,5",Abierto,DONDE LA LOLA,Anual,Abierta,"23,4",18,Acera,8:00:00,1:30:00,8:00:00,1:00:00,8:00:00,1:30:00,8:00:00,1:00:00,10,10,40.3577693,"40.3577693,-3.6891435",-3.6891435
270540475,Usera,https://www.wikidata.org/wiki/Q953368,Moscardó,https://www.wikidata.org/wiki/Q11937679,139 CALLE ANTONIO LOPEZ,139_CALLE_ANTONIO_LOPEZ,28026,"440632,58","440632,58-4471110,52","4471110,52",Abierto,BAR OLIVA,Anual,Abierta,"32,4","32,4",Acera,10:00:00,1:00:00,10:00:00,0:00:00,10:00:00,2:30:00,10:00:00,0:00:00,10,10,40.3885519,"40.3885519,-3.6994864",-3.6994864
280050244,Usera,https://www.wikidata.org/wiki/Q953368,Moscardó,https://www.wikidata.org/wiki/Q11937679,150 CALLE ANTONIO LOPEZ,150_CALLE_ANTONIO_LOPEZ,28026,"440423,58","440423,58-4471289,52","4471289,52",Abierto,TABERNA LA ANDALUZA,Anual,Abierta,"19,44","19,44",Acera,10:00:00,1:00:00,10:00:00,0:00:00,10:00:00,2:30:00,10:00:00,0:00:00,6,6,40.3901021,"40.3901021,-3.7019606",-3.7019606
280049608,Usera,https://www.wikidata.org/wiki/Q953368,Orcasitas,https://www.wikidata.org/wiki/Q3773941,41 CALLE GRAN AVENIDA,41_CALLE_GRAN_AVENIDA,28041,"440134,56","440134,56-4469043,52","4469043,52",Abierto,CAFETERIA JUANITO,Anual,Abierta,63,63,Acera,10:00:00,1:00:00,10:00:00,0:00:00,10:00:00,1:30:00,10:00:00,0:00:00,10,18,40.3698956,"40.3698956,-3.7052391",-3.7052391
270156733,Usera,https://www.wikidata.org/wiki/Q953368,Moscardó,https://www.wikidata.org/wiki/Q11937679,156 CALLE MARCELO USERA,156_CALLE_MARCELO_USERA,28026,"439464,59","439464,59-4470801,53","4470801,53",Abierto,EL CHIRINGUITO,Anual,Abierta,29,29,Zona de estacionamiento,8:00:00,1:30:00,8:00:00,0:00:00,8:00:00,1:30:00,8:00:00,0:00:00,5,5,40.3852832,"40.3852832,-3.7130778",-3.7130778
270526564,Usera,https://www.wikidata.org/wiki/Q953368,Almendrales,https://www.wikidata.org/wiki/Q9604761,3 CALLE SANTUARIO,3_CALLE_SANTUARIO,28026,"440600,2126","440600,2126-4470662,102","4470662,102",Abierto,BAR CAFETERIA,Anual,Abierta,"19,44","19,44",Plaza peatonal,10:00:00,1:00:00,10:00:00,0:00:00,10:00:00,2:30:00,10:00:00,0:00:00,6,6,40.3844814,"40.3844814,-3.6997289",-3.6997289
280049131,Usera,https://www.wikidata.org/wiki/Q953368,Moscardó,https://www.wikidata.org/wiki/Q11937679,46 CALLE AMPARO USERA,46_CALLE_AMPARO_USERA,28026,"440030,58","440030,58-4470961,52","4470961,52",Abierto,BAR EL MANCHEGO (LOCAL 2 Y 3),Anual,Abierta,"7,02","7,02",Acera,8:00:00,1:30:00,8:00:00,1:00:00,8:00:00,1:30:00,8:00:00,1:00:00,3,3,40.3872366,"40.3872366,-3.7066266",-3.7066266
200001961,San Blas,https://www.wikidata.org/wiki/Q2001937,Simancas,https://www.wikidata.org/wiki/Q10371626,490 CALLE ALCALA,490_CALLE_ALCALA,28027,"446575,57","446575,57-4476777,45","4476777,45",Abierto,TGB-THE GOOD BURGER,Anual,Abierta,"22,98","22,98",Acera,8:00:00,1:30:00,8:00:00,1:00:00,8:00:00,1:30:00,8:00:00,1:00:00,9,9,40.4398875,"40.4398875,-3.6297359",-3.6297359
40003086,Salamanca,https://www.wikidata.org/wiki/Q1773521,Recoletos,https://www.wikidata.org/wiki/Q3814551,28 CALLE AYALA,28_CALLE_AYALA,28001,"441831,59","441831,59-4475443,52","4475443,52",Abierto,LA NIÑA,Anual,Abierta,"42,84","42,84",Acera,10:00:00,1:00:00,10:00:00,0:00:00,10:00:00,2:30:00,10:00:00,0:00:00,16,16,40.4277306,"40.4277306,-3.6857803",-3.6857803
40002254,Salamanca,https://www.wikidata.org/wiki/Q1773521,La Guindalera,https://www.wikidata.org/wiki/Q3814559,233 CALLE ALCALA,233_CALLE_ALCALA,28028,"443640,58","443640,58-4475735,49","4475735,49",Abierto,JARRITUS,Anual,Abierta,"50,2","50,2",Acera,10:00:00,1:00:00,10:00:00,0:00:00,10:00:00,2:30:00,10:00:00,0:00:00,19,19,40.4304554,"40.4304554,-3.6645559",-3.6645559
270261041,Usera,https://www.wikidata.org/wiki/Q953368,El Zofío,https://www.wikidata.org/wiki/Q71751,19 AVENIDA CERRO DE LOS ANGELES,19_AVENIDA_CERRO_DE_LOS_ANGELES,28026,"439524,58","439524,58-4470063,53","4470063,53",Abierto,SALEM II,Anual,Abierta,"27,69","27,69",Plaza peatonal,10:00:00,1:00:00,10:00:00,0:00:00,10:00:00,1:30:00,10:00:00,0:00:00,14,14,40.3789773,"40.3789773,-3.7123753",-3.7123753
270157551,Usera,https://www.wikidata.org/wiki/Q953368,Pradolongo,https://www.wikidata.org/wiki/Q10352360,35 AVENIDA RAFAELA YBARRA,35_AVENIDA_RAFAELA_YBARRA,28026,"439635,58","439635,58-4470536,53","4470536,53",Abierto,CAFETERIA CUESTA CERVECERIA,Anual,Abierta,"4,28","4,28",Acera,10:00:00,1:00:00,10:00:00,0:00:00,10:00:00,2:30:00,10:00:00,0:00:00,3,3,40.3832751,"40.3832751,-3.7111629",-3.7111629
270225619,Usera,https://www.wikidata.org/wiki/Q953368,Moscardó,https://www.wikidata.org/wiki/Q11937679,27 CALLE MANUEL NOYA,27_CALLE_MANUEL_NOYA,28026,"439562,58","439562,58-4470804,53","4470804,53",Abierto,CAFETERIA LUMAR,Anual,Abierta,"17,9","17,9",Acera,10:00:00,1:00:00,10:00:00,0:00:00,10:00:00,1:30:00,10:00:00,0:00:00,6,6,40.3856137,"40.3856137,-3.7120108",-3.7120108
270156565,Usera,https://www.wikidata.org/wiki/Q953368,Moscardó,https://www.wikidata.org/wiki/Q11937679,27 CALLE ENRIQUE FUENTES,27_CALLE_ENRIQUE_FUENTES,28026,"439541,59","439541,59-4470847,53","4470847,53",Abierto,DONNER KEBAP USERA,Anual,Abierta,"22,68","22,68",Acera,10:00:00,1:00:00,10:00:00,0:00:00,10:00:00,2:30:00,10:00:00,0:00:00,7,7,40.3859967,"40.3859967,-3.7121061",-3.7121061
270475350,Arganzuela,https://www.wikidata.org/wiki/Q2000929,Palos de Moguer,https://www.wikidata.org/wiki/Q521009,65 CALLE EMBAJADORES,65_CALLE_EMBAJADORES,28012,"440479,59","440479,59-4472828,52","4472828,52",Abierto,BAR CERVECERIA DIAZ,Anual,Abierta,"7,58","7,58",Acera,10:00:00,1:00:00,10:00:00,0:00:00,10:00:00,2:30:00,10:00:00,0:00:00,5,5,40.4038952,"40.4038952,-3.7014002",-3.7014002
285005098,Arganzuela,https://www.wikidata.org/wiki/Q2000929,Palos de Moguer,https://www.wikidata.org/wiki/Q521009,10 CALLE FERROCARRIL,10_CALLE_FERROCARRIL,28045,"441029,58","441029,58-4472500,52","4472500,52",Abierto,CERVECERIA 100 MONTADITOS,Anual,Abierta,"36,45","36,45",Acera,10:00:00,1:00:00,10:00:00,0:00:00,10:00:00,2:30:00,10:00:00,0:00:00,11,11,40.4010896,"40.4010896,-3.6950117",-3.6950117
280018624,Arganzuela,https://www.wikidata.org/wiki/Q2000929,Las Acacias,https://www.wikidata.org/wiki/Q3319190,25 PASEO JUAN ANTONIO VALLEJO-NAJERA BOTAS,25_PASEO_JUAN_ANTONIO_VALLEJO-NAJERA_BOTAS,28005,"439882,59","439882,59-4472605,53","4472605,53",Abierto,PRYCE CAFE,Estacional,Abierta,"12,06","35,64",Acera,8:00:00,1:30:00,10:00:00,0:00:00,8:00:00,1:30:00,10:00:00,0:00:00,11,0,40.4016859,"40.4016859,-3.708348",-3.708348
20000557,Arganzuela,https://www.wikidata.org/wiki/Q2000929,Palos de Moguer,https://www.wikidata.org/wiki/Q521009,4 CALLE ANCORA,4_CALLE_ANCORA,28045,"441174,58","441174,58-4472701,52","4472701,52",Abierto,RESTAURANTE ABADIA,Anual,Abierta,"42,12","42,12",Acera,10:00:00,1:00:00,10:00:00,0:00:00,10:00:00,2:30:00,10:00:00,0:00:00,13,0,40.4027199,"40.4027199,-3.6931692",-3.6931692
20000566,Arganzuela,https://www.wikidata.org/wiki/Q2000929,Las Delicias,https://www.wikidata.org/wiki/Q3773736,139 PASEO DELICIAS,139_PASEO_DELICIAS,28045,"441036,58","441036,58-4471519,52","4471519,52",Abierto,EL KUBO LOCO,Anual,Abierta,"28,7","28,7",Acera,10:00:00,1:00:00,10:00:00,0:00:00,10:00:00,2:30:00,10:00:00,0:00:00,11,11,40.3920836,"40.3920836,-3.6947533",-3.6947533
285004782,Arganzuela,https://www.wikidata.org/wiki/Q2000929,La Chopera,https://www.wikidata.org/wiki/Q3773750,18 CALLE GUILLERMO DE OSMA,18_CALLE_GUILLERMO_DE_OSMA,28045,"440774,58","440774,58-4471714,52","4471714,52",Abierto,COSTELLO RÍO,Anual,Abierta,"65,72","65,72",Acera,10:00:00,1:00:00,10:00:00,0:00:00,10:00:00,2:30:00,10:00:00,0:00:00,18,18,40.3939144,"40.3939144,-3.6976808",-3.6976808
270374350,Arganzuela,https://www.wikidata.org/wiki/Q2000929,Las Acacias,https://www.wikidata.org/wiki/Q3319190,3 CALLE MAJUELO,3_CALLE_MAJUELO,28005,"440004,59","440004,59-4472733,53","4472733,53",Abierto,"PASTELERÍAS, PANADERÍAS Y CAFETERÍAS LOS REYUNOS",Anual,Abierta,"22,1","22,1",Acera,10:00:00,1:00:00,10:00:00,0:00:00,10:00:00,2:30:00,10:00:00,0:00:00,5,5,40.4030205,"40.4030205,-3.707202",-3.707202
270279687,Arganzuela,https://www.wikidata.org/wiki/Q2000929,Imperial,https://www.wikidata.org/wiki/Q3773740,47 PASEO MELANCOLICOS,47_PASEO_MELANCOLICOS,28005,"438883,6","438883,6-4472897,54","4472897,54",Abierto,CASA VALENTIN,Anual,Abierta,"23,76","23,76",Acera,10:00:00,1:00:00,10:00:00,0:00:00,10:00:00,2:30:00,10:00:00,0:00:00,8,8,40.4044988,"40.4044988,-3.7202332",-3.7202332
270508174,Villaverde,https://www.wikidata.org/wiki/Q919536,Los Ángeles,https://www.wikidata.org/wiki/Q390462,54 CALLE LA CANCION DEL OLVIDO,54_CALLE_LA_CANCION_DEL_OLVIDO,28041,"440663,55","440663,55-4468003,51","4468003,51",Abierto,KEBAB TRES FUEGOS,Anual,Abierta,"25,92","12,96",Otros,8:00:00,1:30:00,8:00:00,1:00:00,8:00:00,1:30:00,8:00:00,1:00:00,8,4,40.3605452,"40.3605452,-3.6987988",-3.6987988
170002043,Villaverde,https://www.wikidata.org/wiki/Q919536,San Cristóbal,https://www.wikidata.org/wiki/Q390457,22 PLAZA PINAZO,22_PLAZA_PINAZO,28021,"441260,52","441260,52-4466085,5","4466085,5",Abierto,BAR CAFE LOS PINAZOS,Anual,Abierta,"19,5","19,5",Calle peatonal,8:00:00,1:30:00,8:00:00,1:00:00,8:00:00,1:30:00,8:00:00,1:00:00,5,5,40.3433283,"40.3433283,-3.6915623",-3.6915623
270408288,Chamartín,https://www.wikidata.org/wiki/Q1766348,Ciudad Jardín,https://www.wikidata.org/wiki/Q3773744,4 CALLE NIEREMBERG,4_CALLE_NIEREMBERG,28002,"443100,59","443100,59-4477584,5","4477584,5",Abierto,SAL Y SAL DE TAPAS,Anual,Abierta,"9,05","9,05",Acera,10:00:00,1:00:00,10:00:00,0:00:00,10:00:00,2:30:00,10:00:00,0:00:00,6,6,40.447095,"40.447095,-3.6709199",-3.6709199
270451968,Salamanca,https://www.wikidata.org/wiki/Q1773521,Goya,https://www.wikidata.org/wiki/Q3814578,5 CALLE ANTONIA MERCE,5_CALLE_ANTONIA_MERCE,28009,"442863,58","442863,58-4475060,5","4475060,5",Abierto,BAR CALVIN,Anual,Abierta,"42,48","42,48",Plaza peatonal,8:00:00,1:30:00,8:00:00,0:00:00,8:00:00,1:30:00,8:00:00,0:00:00,12,12,40.4242737,"40.4242737,-3.6735053",-3.6735053
270497098,Salamanca,https://www.wikidata.org/wiki/Q1773521,La Guindalera,https://www.wikidata.org/wiki/Q3814559,78 AVENIDA BRUSELAS,78_AVENIDA_BRUSELAS,28028,"443721,58","443721,58-4477118,49","4477118,49",Abierto,LA CERVEZERIA,Anual,Abierta,"42,76","42,76",Acera,10:00:00,1:00:00,10:00:00,0:00:00,10:00:00,2:30:00,10:00:00,0:00:00,12,12,40.4428364,"40.4428364,-3.663618",-3.663618
280018486,Arganzuela,https://www.wikidata.org/wiki/Q2000929,Las Acacias,https://www.wikidata.org/wiki/Q3319190,19 CALLE MELILLA,19_CALLE_MELILLA,28005,"439829,59","439829,59-4472544,53","4472544,53",Abierto,RESTAURANTE PIMENTON,Anual,Abierta,"79,38","55,08",Plaza peatonal,10:00:00,1:00:00,10:00:00,0:00:00,10:00:00,2:30:00,10:00:00,0:00:00,25,17,40.4010094,"40.4010094,-3.7094094",-3.7094094
270379037,Arganzuela,https://www.wikidata.org/wiki/Q2000929,Imperial,https://www.wikidata.org/wiki/Q3773740,42 PASEO JUAN ANTONIO VALLEJO-NAJERA BOTAS,42_PASEO_JUAN_ANTONIO_VALLEJO-NAJERA_BOTAS,28005,"439441,59","439441,59-4472802,53","4472802,53",Abierto,MONTEPINOS,Anual,Abierta,"65,97","40,11",Acera,8:00:00,1:30:00,8:00:00,1:00:00,8:00:00,1:30:00,8:00:00,1:00:00,18,18,40.4035869,"40.4035869,-3.713596",-3.713596
20001082,Arganzuela,https://www.wikidata.org/wiki/Q2000929,Imperial,https://www.wikidata.org/wiki/Q3773740,51 PASEO JUAN ANTONIO VALLEJO-NAJERA BOTAS,51_PASEO_JUAN_ANTONIO_VALLEJO-NAJERA_BOTAS,28005,"439385,59","439385,59-4472782,53","4472782,53",Abierto,RODILLA,Anual,Abierta,"35,64","35,64",Acera,10:00:00,1:00:00,10:00:00,0:00:00,10:00:00,2:30:00,10:00:00,0:00:00,11,11,40.4034937,"40.4034937,-3.7144109",-3.7144109
20000721,Arganzuela,https://www.wikidata.org/wiki/Q2000929,Imperial,https://www.wikidata.org/wiki/Q3773740,54 PASEO JUAN ANTONIO VALLEJO-NAJERA BOTAS,54_PASEO_JUAN_ANTONIO_VALLEJO-NAJERA_BOTAS,28005,"439312,59","439312,59-4472870,53","4472870,53",Abierto,ARROCERIA IMPERIAL,Anual,Abierta,"27,3","27,3",Acera,10:00:00,1:00:00,10:00:00,0:00:00,10:00:00,2:30:00,10:00:00,0:00:00,15,15,40.4042808,"40.4042808,-3.715202",-3.715202
20000359,Arganzuela,https://www.wikidata.org/wiki/Q2000929,Palos de Moguer,https://www.wikidata.org/wiki/Q521009,63 CALLE EMBAJADORES,63_CALLE_EMBAJADORES,28012,"440469,59","440469,59-4472846,53","4472846,53",Abierto,LOS CHIQUITOS BAR DE TAPAS,Anual,Abierta,"19,35","19,35",Acera,10:00:00,1:00:00,10:00:00,0:00:00,10:00:00,2:30:00,10:00:00,0:00:00,6,6,40.404182,"40.404182,-3.7015041",-3.7015041
270444334,Arganzuela,https://www.wikidata.org/wiki/Q2000929,Las Acacias,https://www.wikidata.org/wiki/Q3319190,82 CALLE EMBAJADORES,82_CALLE_EMBAJADORES,28012,"440457,59","440457,59-4472791,53","4472791,53",Abierto,AUTOESCUELA LARA,Anual,Abierta,"25,74","25,74",Acera,10:00:00,1:00:00,10:00:00,0:00:00,10:00:00,2:30:00,10:00:00,0:00:00,7,7,40.4036373,"40.4036373,-3.7018101",-3.7018101
270056880,Arganzuela,https://www.wikidata.org/wiki/Q2000929,Las Delicias,https://www.wikidata.org/wiki/Q3773736,153 CALLE EMBAJADORES,153_CALLE_EMBAJADORES,28045,"440952,58","440952,58-4471949,52","4471949,52",Abierto,CERVECERIA GUIMAR CAFETERIA,Anual,Abierta,"31,2","31,2",Acera,10:00:00,1:00:00,10:00:00,0:00:00,10:00:00,2:30:00,10:00:00,0:00:00,10,10,40.3960723,"40.3960723,-3.6957521",-3.6957521
270287197,Arganzuela,https://www.wikidata.org/wiki/Q2000929,Las Delicias,https://www.wikidata.org/wiki/Q3773736,15 CALLE FERROCARRIL,15_CALLE_FERROCARRIL,28045,"440966,58","440966,58-4472462,52","4472462,52",Abierto,TABERNA DEL FERROCARRIL,Anual,Abierta,"39,77","39,77",Acera,10:00:00,1:00:00,10:00:00,0:00:00,10:00:00,2:30:00,10:00:00,0:00:00,14,0,40.4006775,"40.4006775,-3.6955448",-3.6955448
285002998,Centro,https://www.wikidata.org/wiki/Q1763376,Justicia,https://www.wikidata.org/wiki/Q1992319,1 PLAZA PEDRO ZEROLO,1_PLAZA_PEDRO_ZEROLO,28004,"440630,59","440630,59-4474730,53","4474730,53",Abierto,LA SACRISTIA RESTAURANTE,Anual,Abierta,"38,88","38,88",Plaza con bandas permanentes de circulación rodada,10:00:00,0:00:00,10:00:00,23:00:00,10:00:00,1:30:00,10:00:00,23:00:00,12,12,40.42096,"40.42096,-3.6998846",-3.6998846
270490176,Villaverde,https://www.wikidata.org/wiki/Q919536,Los Ángeles,https://www.wikidata.org/wiki/Q390462,34 CALLE ARECHAVALETA,34_CALLE_ARECHAVALETA,28041,"440829,54","440829,54-4467051,51","4467051,51",Abierto,BAR MARTINEZ,Anual,Abierta,"8,82","8,82",Acera,8:00:00,1:30:00,8:00:00,1:00:00,8:00:00,1:30:00,8:00:00,1:00:00,3,3,40.3519552,"40.3519552,-3.6967066",-3.6967066
270308840,Villaverde,https://www.wikidata.org/wiki/Q919536,Butarque,https://www.wikidata.org/wiki/Q390453,20 CALLE POTASA,20_CALLE_POTASA,28021,"442217,53","442217,53-4467015,49","4467015,49",Abierto,CAFE HILO'S,Anual,Abierta,"125,66","125,66",Plaza peatonal,8:00:00,1:30:00,8:00:00,1:00:00,8:00:00,1:30:00,8:00:00,1:00:00,8,8,40.3517598,"40.3517598,-3.680436",-3.680436
270531125,Latina,https://www.wikidata.org/wiki/Q794954,Las Águilas,https://www.wikidata.org/wiki/Q5971372,2 CALLE GUAREÑA,2_CALLE_GUAREÑA,28044,"434951,62","434951,62-4471220,57","4471220,57",Abierto,IBERICA BY EL ESQUINAZO,Anual,Abierta,"36,9","36,9",Acera,10:00:00,0:00:00,10:00:00,0:00:00,10:00:00,0:30:00,10:00:00,0:00:00,10,0,40.3891377,"40.3891377,-3.7664365",-3.7664365
270379563,Latina,https://www.wikidata.org/wiki/Q794954,Las Águilas,https://www.wikidata.org/wiki/Q5971372,7 CALLE GUAREÑA,7_CALLE_GUAREÑA,28044,"435028,62","435028,62-4471061,57","4471061,57",Abierto,MONTON SANZ CAFETERIA RESTAURANTE,Anual,Abierta,"36,61","36,61",Acera,8:00:00,0:00:00,8:00:00,0:00:00,8:00:00,0:30:00,8:00:00,0:30:00,12,0,40.3876957,"40.3876957,-3.7655012",-3.7655012
270074139,Salamanca,https://www.wikidata.org/wiki/Q1773521,Goya,https://www.wikidata.org/wiki/Q3814578,8 CALLE ANTONIA MERCE,8_CALLE_ANTONIA_MERCE,28009,"442929,58","442929,58-4475090,5","4475090,5",Abierto,EL BARRIL,Anual,Abierta,"36,2","36,2",Acera,8:00:00,1:30:00,8:00:00,1:00:00,8:00:00,1:30:00,8:00:00,1:00:00,11,11,40.4243357,"40.4243357,-3.6728906",-3.6728906
270130826,Fuencarral-El Pardo,https://www.wikidata.org/wiki/Q656196,La Paz,https://www.wikidata.org/wiki/Q5869740,22 CALLE GINZO DE LIMIA,22_CALLE_GINZO_DE_LIMIA,28029,"440403,62","440403,62-4480965,55","4480965,55",Abierto,BAHIA,Anual,Abierta,"17,55","17,55",Acera,8:00:00,1:30:00,8:00:00,1:00:00,8:00:00,1:30:00,8:00:00,1:00:00,5,5,40.4771931,"40.4771931,-3.7030788",-3.7030788
280048679,Fuencarral-El Pardo,https://www.wikidata.org/wiki/Q656196,Valverde,https://www.wikidata.org/wiki/Q31132,10 CALLE SAN JUAN DE ORTEGA,10_CALLE_SAN_JUAN_DE_ORTEGA,28050,"443085,62","443085,62-4483719,52","4483719,52",Abierto,RESTAURANTE LA DEHESA IV,Anual,Abierta,39,39,Acera,8:00:00,1:30:00,8:00:00,1:00:00,8:00:00,1:30:00,8:00:00,1:00:00,16,16,40.5024978,"40.5024978,-3.6712353",-3.6712353
285016512,Fuencarral-El Pardo,https://www.wikidata.org/wiki/Q656196,Mirasierra,https://www.wikidata.org/wiki/Q31134,20 AVENIDA MONASTERIO DE SILOS,20_AVENIDA_MONASTERIO_DE_SILOS,28049,"439962,64","439962,64-4483882,56","4483882,56",Abierto,TABERNA COCINARTE,Anual,Abierta,"22,5","22,5",Acera,10:00:00,1:00:00,10:00:00,0:00:00,10:00:00,2:30:00,10:00:00,0:00:00,8,8,40.5033618,"40.5033618,-3.7086779",-3.7086779
280045385,Moncloa-Aravaca,https://www.wikidata.org/wiki/Q2017682,Casa de Campo,https://www.wikidata.org/wiki/Q16302441,18 PASEO FLORIDA,18_PASEO_FLORIDA,28008,"438617,61","438617,61-4475016,55","4475016,55",Abierto,VINUBAR,Anual,Abierta,"20,32","20,32",Acera,10:00:00,1:00:00,10:00:00,0:00:00,10:00:00,2:30:00,10:00:00,0:00:00,4,4,40.4234087,"40.4234087,-3.7234519",-3.7234519
20000108,Arganzuela,https://www.wikidata.org/wiki/Q2000929,Palos de Moguer,https://www.wikidata.org/wiki/Q521009,10 CALLE ANCORA,10_CALLE_ANCORA,28045,"441231,58","441231,58-4472695,52","4472695,52",Abierto,BAR JUANITO,Anual,Abierta,"68,12","68,12",Acera,10:00:00,1:00:00,10:00:00,0:00:00,10:00:00,2:30:00,10:00:00,0:00:00,23,23,40.4028063,"40.4028063,-3.6924793",-3.6924793
270287459,Arganzuela,https://www.wikidata.org/wiki/Q2000929,Palos de Moguer,https://www.wikidata.org/wiki/Q521009,12 CALLE MENDEZ ALVARO,12_CALLE_MENDEZ_ALVARO,28045,"441258,58","441258,58-4473095,52","4473095,52",Abierto,BISTRO PREMIUM RESTAURANTE,Anual,Abierta,"5,76","5,76",Acera,10:00:00,1:00:00,10:00:00,0:00:00,10:00:00,2:30:00,10:00:00,0:00:00,4,4,40.4064205,"40.4064205,-3.6922747",-3.6922747
270058751,Arganzuela,https://www.wikidata.org/wiki/Q2000929,Palos de Moguer,https://www.wikidata.org/wiki/Q521009,14 CALLE MENDEZ ALVARO,14_CALLE_MENDEZ_ALVARO,28045,"441274,58","441274,58-4473074,52","4473074,52",Abierto,BAR EL ANDEN,Anual,Abierta,"39,09","22,32",Acera,10:00:00,1:00:00,10:00:00,0:00:00,10:00:00,2:30:00,10:00:00,0:00:00,10,5,40.4062915,"40.4062915,-3.6922173",-3.6922173
200001212,San Blas,https://www.wikidata.org/wiki/Q2001937,Amposta,https://www.wikidata.org/wiki/Q11905392,2 CALLE AJOFRIN,2_CALLE_AJOFRIN,28037,"446951,56","446951,56-4475171,45","4475171,45",Abierto,UVE Y MARI,Anual,Abierta,"39,06","37,8",Acera,8:00:00,0:00:00,8:00:00,0:00:00,8:00:00,0:00:00,8:00:00,0:00:00,9,9,40.425477,"40.425477,-3.6252354",-3.6252354
200000995,San Blas,https://www.wikidata.org/wiki/Q2001937,Arcos,https://www.wikidata.org/wiki/Q9627876,63 CALLE AQUITANIA,63_CALLE_AQUITANIA,28032,"447920,55","447920,55-4474609,43","4474609,43",Abierto,EL DESVAN CAFE RESTAURANTE,Anual,Abierta,"64,8","64,8",Acera,8:00:00,0:00:00,8:00:00,0:00:00,8:00:00,0:00:00,8:00:00,0:00:00,20,20,40.420461,"40.420461,-3.6138019",-3.6138019
270523220,San Blas,https://www.wikidata.org/wiki/Q2001937,Arcos,https://www.wikidata.org/wiki/Q9627876,85 CALLE AQUITANIA,85_CALLE_AQUITANIA,28032,"448064,55","448064,55-4474672,43","4474672,43",Abierto,BAR LAS CINCO LAGUNAS,Anual,Abierta,"37,04","37,04",Acera,8:00:00,0:00:00,8:00:00,0:00:00,8:00:00,0:00:00,8:00:00,0:00:00,15,15,40.4211116,"40.4211116,-3.6122195",-3.6122195
200000125,San Blas,https://www.wikidata.org/wiki/Q2001937,Rosas,https://www.wikidata.org/wiki/Q18880469,24 AVENIDA ARCENTALES,24_AVENIDA_ARCENTALES,28022,"448216,56","448216,56-4476092,43","4476092,43",Abierto,EL RACIMO DE ORO,Anual,Abierta,"57,12","37,8",Otros,8:00:00,0:00:00,8:00:00,0:00:00,8:00:00,0:00:00,8:00:00,0:00:00,24,24,40.4338728,"40.4338728,-3.6104681",-3.6104681
270318039,San Blas,https://www.wikidata.org/wiki/Q2001937,Canillejas,https://www.wikidata.org/wiki/Q663013,5 CALLE CANAL DEL BOSFORO,5_CALLE_CANAL_DEL_BOSFORO,28022,"447987,56","447987,56-4476775,43","4476775,43",Abierto,CERVECERIA DAN-CAR,Anual,Abierta,"5,76","5,76",Acera,8:00:00,0:00:00,8:00:00,0:00:00,8:00:00,0:00:00,8:00:00,0:00:00,4,0,40.4400647,"40.4400647,-3.613252",-3.613252
270229078,San Blas,https://www.wikidata.org/wiki/Q2001937,Canillejas,https://www.wikidata.org/wiki/Q663013,6 CALLE CANAL DEL BOSFORO,6_CALLE_CANAL_DEL_BOSFORO,28022,"447947,56","447947,56-4476734,43","4476734,43",Abierto,BAR EL RINCON DE MIGUELIN,Anual,Abierta,"4,32","4,32",Acera,8:00:00,0:00:00,8:00:00,0:00:00,8:00:00,0:00:00,8:00:00,0:00:00,3,3,40.4395871,"40.4395871,-3.6138476",-3.6138476
200001347,San Blas,https://www.wikidata.org/wiki/Q2001937,Simancas,https://www.wikidata.org/wiki/Q10371626,4 CALLE CASTILLO DE UCLES,4_CALLE_CASTILLO_DE_UCLES,28037,"446689,56","446689,56-4475284,45","4475284,45",Abierto,BAR LA CAMPANA,Anual,Abierta,"12,96","12,96",Acera,8:00:00,0:00:00,8:00:00,0:00:00,8:00:00,0:00:00,8:00:00,0:00:00,4,4,40.4265297,"40.4265297,-3.6283498",-3.6283498
270545395,San Blas,https://www.wikidata.org/wiki/Q2001937,Simancas,https://www.wikidata.org/wiki/Q10371626,11 CALLE CASTILLO DE UCLES,11_CALLE_CASTILLO_DE_UCLES,28037,"446959,56","446959,56-4475461,45","4475461,45",Abierto,BAR UCLES,Anual,Abierta,"16,2","16,2",Acera,8:00:00,0:00:00,8:00:00,0:00:00,8:00:00,0:00:00,8:00:00,0:00:00,4,5,40.4281761,"40.4281761,-3.6251288",-3.6251288
270537907,San Blas,https://www.wikidata.org/wiki/Q2001937,Rejas,https://www.wikidata.org/wiki/Q10359029,2 AVENIDA FERMINA SEVILLANO,2_AVENIDA_FERMINA_SEVILLANO,28022,"452050,56","452050,56-4477576,36","4477576,36",Abierto,BAR LOS AMIGOS,Anual,Abierta,"19,44","19,44",Acera,8:00:00,1:00:00,8:00:00,1:00:00,8:00:00,1:00:00,8:00:00,1:00:00,6,6,40.4473552,"40.4473552,-3.5655651",-3.5655651
280067426,San Blas,https://www.wikidata.org/wiki/Q2001937,Hellín,https://www.wikidata.org/wiki/Q10294546,6 CALLE HERENCIA,6_CALLE_HERENCIA,28037,"448020,56","448020,56-4475777,43","4475777,43",Abierto,CEFETERIA CERVECERIA JUVINA,Anual,Abierta,"98,97","98,97",Acera,8:00:00,0:00:00,8:00:00,0:00:00,8:00:00,0:00:00,8:00:00,0:00:00,28,28,40.4310825,"40.4310825,-3.6125801",-3.6125801
200000909,San Blas,https://www.wikidata.org/wiki/Q2001937,Rosas,https://www.wikidata.org/wiki/Q18880469,5 CALLE BUCAREST,5_CALLE_BUCAREST,28022,"448845,55","448845,55-4475251,41","4475251,41",Abierto,A TABERNA DO MEIGO,Anual,Abierta,62,62,Acera,8:00:00,1:00:00,8:00:00,1:00:00,8:00:00,1:00:00,8:00:00,1:00:00,20,0,40.4263691,"40.4263691,-3.6029631",-3.6029631
200001615,San Blas,https://www.wikidata.org/wiki/Q2001937,Simancas,https://www.wikidata.org/wiki/Q10371626,5 AVENIDA INSTITUCION LIBRE DE ENSEÑANZA,5_AVENIDA_INSTITUCION_LIBRE_DE_ENSEÑANZA,28037,"445927,57","445927,57-4476526,46","4476526,46",Abierto,GAMBRINUS,Anual,Abierta,"23,4","23,4",Acera,8:00:00,1:30:00,8:00:00,1:00:00,8:00:00,1:30:00,8:00:00,1:00:00,10,0,40.4375391,"40.4375391,-3.6374859",-3.6374859
270380796,San Blas,https://www.wikidata.org/wiki/Q2001937,Simancas,https://www.wikidata.org/wiki/Q10371626,41 AVENIDA INSTITUCION LIBRE DE ENSEÑANZA,41_AVENIDA_INSTITUCION_LIBRE_DE_ENSEÑANZA,28037,"446282,56","446282,56-4475875,46","4475875,46",Abierto,BAR RESTAURANTE,Anual,Abierta,"12,61","12,61",Acera,8:00:00,0:00:00,8:00:00,0:00:00,8:00:00,0:00:00,8:00:00,0:00:00,5,0,40.4324978,"40.4324978,-3.6339172",-3.6339172
270545030,San Blas,https://www.wikidata.org/wiki/Q2001937,Simancas,https://www.wikidata.org/wiki/Q10371626,79 AVENIDA INSTITUCION LIBRE DE ENSEÑANZA,79_AVENIDA_INSTITUCION_LIBRE_DE_ENSEÑANZA,28037,"446644,56","446644,56-4475239,45","4475239,45",Abierto,CHURRERIA LOS MADROÑOS,Anual,Abierta,"79,45","79,45",Acera,8:00:00,0:00:00,8:00:00,0:00:00,8:00:00,0:00:00,8:00:00,0:00:00,16,20,40.4261593,"40.4261593,-3.6289443",-3.6289443
200000310,San Blas,https://www.wikidata.org/wiki/Q2001937,Canillejas,https://www.wikidata.org/wiki/Q663013,57 AVENIDA CANILLEJAS A VICALVARO,57_AVENIDA_CANILLEJAS_A_VICALVARO,28022,"448057,56","448057,56-4476320,43","4476320,43",Abierto,CERVECERIA LORENZO,Anual,Abierta,"5,58","5,58",Acera,8:00:00,1:30:00,8:00:00,1:00:00,8:00:00,1:30:00,8:00:00,1:00:00,3,0,40.4359374,"40.4359374,-3.6124248",-3.6124248
270441696,San Blas,https://www.wikidata.org/wiki/Q2001937,Simancas,https://www.wikidata.org/wiki/Q10371626,17 AVENIDA INSTITUCION LIBRE DE ENSEÑANZA,17_AVENIDA_INSTITUCION_LIBRE_DE_ENSEÑANZA,28037,"445988,57","445988,57-4476413,46","4476413,46",Abierto,BAYMA CAFETERIA,Anual,Abierta,"11,22","11,46",Acera,8:00:00,1:30:00,8:00:00,1:00:00,8:00:00,1:30:00,8:00:00,1:00:00,6,6,40.4366292,"40.4366292,-3.6366834",-3.6366834
270202216,San Blas,https://www.wikidata.org/wiki/Q2001937,Rosas,https://www.wikidata.org/wiki/Q18880469,2 CALLE LONGARES,2_CALLE_LONGARES,28022,"448257,56","448257,56-4475971,42","4475971,42",Abierto,BAR LA BAHÍA,Anual,Abierta,"16,38","11,7",Acera,8:00:00,1:30:00,8:00:00,1:00:00,8:00:00,1:30:00,8:00:00,1:00:00,7,5,40.432601,"40.432601,-3.6100118",-3.6100118
270032768,San Blas,https://www.wikidata.org/wiki/Q2001937,Canillejas,https://www.wikidata.org/wiki/Q663013,54 CALLE LUCANO,54_CALLE_LUCANO,28022,"448285,56","448285,56-4476333,42","4476333,42",Abierto,CASI BAR,Anual,Abierta,"2,88","2,88",Acera,8:00:00,0:00:00,8:00:00,0:00:00,8:00:00,0:00:00,8:00:00,0:00:00,2,2,40.4360372,"40.4360372,-3.609849",-3.609849
270529634,San Blas,https://www.wikidata.org/wiki/Q2001937,Rosas,https://www.wikidata.org/wiki/Q18880469,5 CALLE MARIA SEVILLA DIAGO,5_CALLE_MARIA_SEVILLA_DIAGO,28022,"448176,56","448176,56-4475997,43","4475997,43",Abierto,LA ALCAZABA DE ALMERIA,Anual,Abierta,"98,35","98,35",Acera,8:00:00,1:30:00,8:00:00,1:00:00,8:00:00,1:30:00,8:00:00,1:00:00,28,28,40.4329519,"40.4329519,-3.6110746",-3.6110746
270187893,San Blas,https://www.wikidata.org/wiki/Q2001937,Arcos,https://www.wikidata.org/wiki/Q9627876,2 CALLE MASILLA,2_CALLE_MASILLA,28037,"447678,56","447678,56-4475349,43","4475349,43",Abierto,CERVECERIA BAR SILA,Anual,Abierta,"26,97","26,97",Acera,8:00:00,0:00:00,8:00:00,0:00:00,8:00:00,0:00:00,8:00:00,0:00:00,10,0,40.4269062,"40.4269062,-3.6171301",-3.6171301
270529281,San Blas,https://www.wikidata.org/wiki/Q2001937,Arcos,https://www.wikidata.org/wiki/Q9627876,4 CALLE MASILLA,4_CALLE_MASILLA,28037,"447703,56","447703,56-4475352,43","4475352,43",Abierto,LOS NIÑOS DE LA VICTORIA BAR CAFE,Anual,Abierta,"20,02","15,4",Acera,8:00:00,1:30:00,8:00:00,1:00:00,8:00:00,1:30:00,8:00:00,1:00:00,7,7,40.4271699,"40.4271699,-3.6166139",-3.6166139
200000107,San Blas,https://www.wikidata.org/wiki/Q2001937,Canillejas,https://www.wikidata.org/wiki/Q663013,6 CALLE TORRE ARIAS,6_CALLE_TORRE_ARIAS,28022,"448098,57","448098,57-4477435,43","4477435,43",Abierto,BAR LOS ANGELES,Anual,Abierta,"51,59","22,14",Plaza peatonal,10:00:00,0:00:00,10:00:00,0:00:00,10:00:00,0:00:00,10:00:00,0:00:00,14,6,40.4459882,"40.4459882,-3.6120582",-3.6120582
270537939,San Blas,https://www.wikidata.org/wiki/Q2001937,Canillejas,https://www.wikidata.org/wiki/Q663013,24 CALLE ESFINGE,24_CALLE_ESFINGE,28022,"448194,57","448194,57-4477338,43","4477338,43",Abierto,SIDRERIA EL LLAGAR,Anual,Abierta,"72,43","72,43",Plaza peatonal,8:00:00,1:30:00,8:00:00,1:00:00,8:00:00,1:30:00,8:00:00,1:00:00,22,22,40.445,"40.445,-3.6107151",-3.6107151
270030162,San Blas,https://www.wikidata.org/wiki/Q2001937,Amposta,https://www.wikidata.org/wiki/Q11905392,23 CALLE JOYERIA,23_CALLE_JOYERIA,28037,"447122,56","447122,56-4474988,44","4474988,44",Abierto,BAR GUADIANA,Estacional,Abierta,"19,08","15,34",Acera,8:30:00,0:00:00,10:00:00,0:00:00,8:30:00,0:30:00,10:00:00,0:00:00,7,6,40.4238309,"40.4238309,-3.6233994",-3.6233994
270208604,San Blas,https://www.wikidata.org/wiki/Q2001937,Canillejas,https://www.wikidata.org/wiki/Q663013,16 CALLE CANAL DEL BOSFORO,16_CALLE_CANAL_DEL_BOSFORO,28022,"448026,56","448026,56-4476767,43","4476767,43",Abierto,BAR GIL,Anual,Abierta,"8,64","8,64",Acera,8:00:00,0:30:00,8:00:00,0:00:00,8:00:00,0:30:00,8:00:00,0:00:00,6,6,40.4399021,"40.4399021,-3.6128612",-3.6128612
270232747,San Blas,https://www.wikidata.org/wiki/Q2001937,Arcos,https://www.wikidata.org/wiki/Q9627876,2 PLAZUELA OBRA,2_PLAZUELA_OBRA,28037,"447796,56","447796,56-4475353,43","4475353,43",Abierto,BAR COIMBRA,Anual,Abierta,"48,8","48,8",Plaza peatonal,8:00:00,0:30:00,8:00:00,0:30:00,8:00:00,0:30:00,8:00:00,0:30:00,8,8,40.4395516,"40.4395516,-3.6709494",-3.6709494
200001301,San Blas,https://www.wikidata.org/wiki/Q2001937,Arcos,https://www.wikidata.org/wiki/Q9627876,6 CALLE POBLADURA DEL VALLE,6_CALLE_POBLADURA_DEL_VALLE,28037,"447016,56","447016,56-4474831,44","4474831,44",Abierto,BAR SUPERA,Anual,Abierta,"71,91","17,44",Calle peatonal,8:00:00,0:00:00,8:00:00,0:00:00,8:00:00,0:00:00,8:00:00,0:00:00,19,11,40.4224412,"40.4224412,-3.6243973",-3.6243973
200000142,San Blas,https://www.wikidata.org/wiki/Q2001937,Amposta,https://www.wikidata.org/wiki/Q11905392,2 CALLE ABANICO,2_CALLE_ABANICO,28037,"447253,56","447253,56-4475403,44","4475403,44",Abierto,BAR CAMARERO,Anual,Abierta,"83,06","83,06",Calle peatonal,8:00:00,1:00:00,8:00:00,1:00:00,8:00:00,1:30:00,8:00:00,1:00:00,31,0,40.427656,"40.427656,-3.6217854",-3.6217854
270188909,San Blas,https://www.wikidata.org/wiki/Q2001937,Canillejas,https://www.wikidata.org/wiki/Q663013,2 CALLE SEBASTIAN FRANCISCO,2_CALLE_SEBASTIAN_FRANCISCO,28022,"448378,57","448378,57-4477355,43","4477355,43",Abierto,BAR OLMEDILLA,Estacional,Abierta,"46,2",63,Acera,8:00:00,1:00:00,8:00:00,1:00:00,8:00:00,1:00:00,8:00:00,1:00:00,25,25,40.4452141,"40.4452141,-3.6087016",-3.6087016
200001356,San Blas,https://www.wikidata.org/wiki/Q2001937,Rosas,https://www.wikidata.org/wiki/Q18880469,50 CALLE SOFIA,50_CALLE_SOFIA,28022,"449018,55","449018,55-4475377,41","4475377,41",Abierto,LA VILLA DE FOZ,Anual,Abierta,"16,56","16,56",Acera,8:00:00,1:30:00,8:00:00,1:00:00,8:00:00,1:30:00,8:00:00,1:00:00,6,6,40.4274417,"40.4274417,-3.6010055",-3.6010055
200001213,San Blas,https://www.wikidata.org/wiki/Q2001937,Rosas,https://www.wikidata.org/wiki/Q18880469,14 CALLE MOSCU,14_CALLE_MOSCU,28022,"449033,55","449033,55-4475136,41","4475136,41",Abierto,BAR EL REFUGIO,Anual,Abierta,"14,18","14,18",Acera,8:00:00,1:30:00,8:00:00,1:00:00,8:00:00,1:30:00,8:00:00,1:00:00,18,18,40.4255692,"40.4255692,-3.6012619",-3.6012619
200000902,San Blas,https://www.wikidata.org/wiki/Q2001937,Rosas,https://www.wikidata.org/wiki/Q18880469,211 CALLE SOFIA,211_CALLE_SOFIA,28022,"448947,56","448947,56-4475637,41","4475637,41",Abierto,CERVECERIA Z DE MADRIZ,Anual,Abierta,"32,48","19,68",Acera,8:00:00,0:00:00,8:00:00,0:00:00,8:00:00,0:00:00,8:00:00,0:00:00,17,9,40.4297452,"40.4297452,-3.6018649",-3.6018649
270447448,San Blas,https://www.wikidata.org/wiki/Q2001937,Rosas,https://www.wikidata.org/wiki/Q18880469,15 CALLE SUECIA,15_CALLE_SUECIA,28022,"448468,55","448468,55-4474856,42","4474856,42",Abierto,FRESH DONNER KEBAB,Anual,Abierta,"16,2","16,2",Acera,8:00:00,1:30:00,8:00:00,1:00:00,8:00:00,1:30:00,8:00:00,1:00:00,5,5,40.4227025,"40.4227025,-3.6076389",-3.6076389
270539192,San Blas,https://www.wikidata.org/wiki/Q2001937,Rosas,https://www.wikidata.org/wiki/Q18880469,17 CALLE ELBA,17_CALLE_ELBA,28022,"448774,55","448774,55-4475159,41","4475159,41",Abierto,ESCUELA DE ENSEÑANZA,Anual,Abierta,"63,96","63,96",Acera,8:00:00,1:30:00,8:00:00,1:00:00,8:00:00,1:30:00,8:00:00,1:00:00,20,20,40.4255865,"40.4255865,-3.6038562",-3.6038562
200000348,San Blas,https://www.wikidata.org/wiki/Q2001937,Rosas,https://www.wikidata.org/wiki/Q18880469,53 CALLE SUECIA,53_CALLE_SUECIA,28022,"448703,55","448703,55-4475313,42","4475313,42",Abierto,A LA DE TRES,Anual,Abierta,"38,36","21,77",Acera,8:00:00,1:30:00,8:00:00,1:00:00,8:00:00,1:30:00,8:00:00,1:00:00,7,9,40.4269908,"40.4269908,-3.6047136",-3.6047136
270296754,Usera,https://www.wikidata.org/wiki/Q953368,El Zofío,https://www.wikidata.org/wiki/Q71751,23 AVENIDA CERRO DE LOS ANGELES,23_AVENIDA_CERRO_DE_LOS_ANGELES,28026,"439532,58","439532,58-4470033,53","4470033,53",Abierto,HNOS MAYORDOMO,Anual,Abierta,"70,9","70,96",Acera,8:00:00,1:30:00,8:00:00,1:00:00,8:00:00,1:30:00,8:00:00,1:00:00,8,8,40.3786157,"40.3786157,-3.7122855",-3.7122855
270154385,Usera,https://www.wikidata.org/wiki/Q953368,Orcasitas,https://www.wikidata.org/wiki/Q3773941,27 CALLE GRAN AVENIDA,27_CALLE_GRAN_AVENIDA,28041,"439941,56","439941,56-4469081,52","4469081,52",Abierto,BAR,Anual,Abierta,"25,92","25,92",Acera,10:00:00,1:00:00,10:00:00,0:00:00,10:00:00,2:30:00,10:00:00,0:00:00,8,8,40.370147,"40.370147,-3.7074779",-3.7074779
270539344,Usera,https://www.wikidata.org/wiki/Q953368,Moscardó,https://www.wikidata.org/wiki/Q11937679,177 PASEO SANTA MARIA DE LA CABEZA,177_PASEO_SANTA_MARIA_DE_LA_CABEZA,28026,"439293,59","439293,59-4470900,53","4470900,53",Abierto,SIN INDICAR,Anual,Abierta,88,88,Acera,10:00:00,1:00:00,10:00:00,0:00:00,10:00:00,2:30:00,10:00:00,0:00:00,20,20,40.3866006,"40.3866006,-3.7153094",-3.7153094
200000893,San Blas,https://www.wikidata.org/wiki/Q2001937,Simancas,https://www.wikidata.org/wiki/Q10371626,84 CALLE ALBASANZ,84_CALLE_ALBASANZ,28037,"447454,57","447454,57-4476737,44","4476737,44",Abierto,EL RINCON DE LA ALCARRIA,Estacional,Abierta,"19,35","20,3",Acera,8:00:00,0:00:00,8:00:00,0:00:00,8:00:00,0:00:00,8:00:00,0:00:00,7,0,40.4395408,"40.4395408,-3.6196979",-3.6196979
270187603,San Blas,https://www.wikidata.org/wiki/Q2001937,Amposta,https://www.wikidata.org/wiki/Q11905392,3 CALLE FERRETERIA,3_CALLE_FERRETERIA,28037,"447174,56","447174,56-4475394,44","4475394,44",Abierto,MAKE DONNER,Anual,Abierta,"79,59","38,88",Acera,8:00:00,0:00:00,8:00:00,0:00:00,8:00:00,0:00:00,8:00:00,0:00:00,22,12,40.4274479,"40.4274479,-3.6227515",-3.6227515
270497966,San Blas,https://www.wikidata.org/wiki/Q2001937,Simancas,https://www.wikidata.org/wiki/Q10371626,440 CALLE ALCALA,440_CALLE_ALCALA,28027,"446094,57","446094,57-4476610,46","4476610,46",Abierto,CERVECERIA HEVIA,Anual,Abierta,"13,38","13,38",Zona de estacionamiento,8:00:00,1:30:00,8:00:00,1:00:00,8:00:00,1:30:00,8:00:00,1:00:00,5,5,40.4383748,"40.4383748,-3.6356531",-3.6356531
270480989,San Blas,https://www.wikidata.org/wiki/Q2001937,Canillejas,https://www.wikidata.org/wiki/Q663013,630 CALLE ALCALA,630_CALLE_ALCALA,28022,"448336,57","448336,57-4477706,43","4477706,43",Abierto,EL RINCON LUSO BAR,Anual,Abierta,"9,36","9,36",Acera,8:00:00,1:30:00,8:00:00,1:00:00,8:00:00,1:30:00,8:00:00,1:00:00,4,4,40.4484182,"40.4484182,-3.6091764",-3.6091764
270187385,San Blas,https://www.wikidata.org/wiki/Q2001937,Hellín,https://www.wikidata.org/wiki/Q10294546,3 CALLE ALCONERA,3_CALLE_ALCONERA,28037,"447589,56","447589,56-4475729,44","4475729,44",Abierto,CERVECERIA SANZ,Anual,Abierta,"34,65","34,65",Acera,8:00:00,1:30:00,8:00:00,1:00:00,8:00:00,1:30:00,8:00:00,1:00:00,11,11,40.4306338,"40.4306338,-3.6179179",-3.6179179
200001259,San Blas,https://www.wikidata.org/wiki/Q2001937,Hellín,https://www.wikidata.org/wiki/Q10294546,7 CALLE ALCONERA,7_CALLE_ALCONERA,28037,"447557,56","447557,56-4475774,44","4475774,44",Abierto,LAS ESTRELLAS,Anual,Abierta,"50,4","50,4",Acera,8:00:00,0:00:00,8:00:00,0:00:00,8:00:00,0:00:00,8:00:00,0:00:00,15,15,40.431025,"40.431025,-3.618258",-3.618258
270187610,San Blas,https://www.wikidata.org/wiki/Q2001937,Amposta,https://www.wikidata.org/wiki/Q11905392,10 CALLE AMPOSTA,10_CALLE_AMPOSTA,28037,"447224,56","447224,56-4475326,44","4475326,44",Abierto,CAFETERIA SHIRAY,Anual,Abierta,"26,2","26,2",Acera,8:00:00,1:30:00,8:00:00,1:00:00,8:00:00,1:30:00,8:00:00,1:00:00,12,12,40.4269579,"40.4269579,-3.622189",-3.622189
270225471,San Blas,https://www.wikidata.org/wiki/Q2001937,Arcos,https://www.wikidata.org/wiki/Q9627876,2 CALLE APRENDICES,2_CALLE_APRENDICES,28037,"447689,56","447689,56-4475277,43","4475277,43",Abierto,BAR BURGOS,Anual,Abierta,"11,16","11,16",Acera,9:00:00,1:30:00,9:00:00,1:00:00,9:00:00,1:30:00,9:00:00,1:00:00,5,4,40.4266295,"40.4266295,-3.6167166",-3.6167166
200000876,San Blas,https://www.wikidata.org/wiki/Q2001937,Arcos,https://www.wikidata.org/wiki/Q9627876,20 CALLE AQUITANIA,20_CALLE_AQUITANIA,28032,"447546,55","447546,55-4474389,43","4474389,43",Abierto,LA TOSTA CAFETERIA,Anual,Abierta,"52,64","23,12",Acera,8:00:00,0:00:00,8:00:00,0:00:00,8:00:00,0:00:00,8:00:00,0:00:00,12,8,40.4183613,"40.4183613,-3.6184182",-3.6184182
270491876,San Blas,https://www.wikidata.org/wiki/Q2001937,Arcos,https://www.wikidata.org/wiki/Q9627876,40 CALLE AQUITANIA,40_CALLE_AQUITANIA,28032,"447965,55","447965,55-4474585,43","4474585,43",Abierto,DELICIAS Y TORTAZOS,Anual,Abierta,"49,65","23,77",Acera,8:00:00,1:30:00,8:00:00,1:00:00,8:00:00,1:30:00,8:00:00,1:00:00,12,9,40.4202563,"40.4202563,-3.6134356",-3.6134356
270457188,San Blas,https://www.wikidata.org/wiki/Q2001937,Simancas,https://www.wikidata.org/wiki/Q10371626,11 CALLE ZARATAN,11_CALLE_ZARATAN,28037,"446929,56","446929,56-4475561,45","4475561,45",Abierto,ALMETRO,Anual,Abierta,"4,32","4,32",Acera,8:00:00,1:30:00,8:00:00,1:00:00,8:00:00,1:30:00,8:00:00,1:00:00,4,0,40.4289641,"40.4289641,-3.6256477",-3.6256477
270187251,San Blas,https://www.wikidata.org/wiki/Q2001937,Simancas,https://www.wikidata.org/wiki/Q10371626,1 CALLE ZARATAN,1_CALLE_ZARATAN,28037,"446915,56","446915,56-4475489,45","4475489,45",Abierto,FRUTAS Y VERDURAS MANOLIN,Anual,Abierta,"5,76","5,76",Acera,8:00:00,0:00:00,8:00:00,0:00:00,8:00:00,0:00:00,8:00:00,0:00:00,4,4,40.4283863,"40.4283863,-3.625789",-3.625789
200000654,San Blas,https://www.wikidata.org/wiki/Q2001937,Simancas,https://www.wikidata.org/wiki/Q10371626,32 CALLE VIRGEN DE LA OLIVA,32_CALLE_VIRGEN_DE_LA_OLIVA,28037,"447082,56","447082,56-4475868,44","4475868,44",Abierto,CERVECERIA EL TERMINO,Anual,Abierta,"35,28","29,4",Acera,8:00:00,0:30:00,8:00:00,0:30:00,8:00:00,0:30:00,8:00:00,0:30:00,12,12,40.4318208,"40.4318208,-3.6237877",-3.6237877
270202175,San Blas,https://www.wikidata.org/wiki/Q2001937,Simancas,https://www.wikidata.org/wiki/Q10371626,22 CALLE VIRGEN DE LA OLIVA,22_CALLE_VIRGEN_DE_LA_OLIVA,28037,"447092,56","447092,56-4475819,44","4475819,44",Abierto,CASA GARCIA,Anual,Abierta,"29,88","29,88",Acera,8:00:00,0:00:00,8:00:00,0:00:00,8:00:00,0:00:00,8:00:00,0:00:00,12,12,40.4313055,"40.4313055,-3.6238675",-3.6238675
270187817,San Blas,https://www.wikidata.org/wiki/Q2001937,Arcos,https://www.wikidata.org/wiki/Q9627876,37 AVENIDA GUADALAJARA,37_AVENIDA_GUADALAJARA,28032,"447428,2008","447428,2008-4474550,634","4474550,634",Abierto,CAFETERIA-CERVECERIA  VALENTIN,Estacional,Abierta,"76,14","105,3",Acera,8:00:00,0:00:00,10:00:00,0:00:00,8:00:00,0:00:00,10:00:00,0:00:00,20,29,40.4200145,"40.4200145,-3.6197221",-3.6197221
270327991,San Blas,https://www.wikidata.org/wiki/Q2001937,Rosas,https://www.wikidata.org/wiki/Q18880469,111 AVENIDA GUADALAJARA,111_AVENIDA_GUADALAJARA,28022,"448215,55","448215,55-4474913,42","4474913,42",Abierto,CASA EUROPA CERVECERIA RESTAURANTE,Anual,Abierta,"25,38","25,38",Acera,8:00:00,1:00:00,8:00:00,1:00:00,8:00:00,1:00:00,8:00:00,1:00:00,12,12,40.4238362,"40.4238362,-3.6105678",-3.6105678
200000905,San Blas,https://www.wikidata.org/wiki/Q2001937,Simancas,https://www.wikidata.org/wiki/Q10371626,57 CALLE SANTA LEONOR,57_CALLE_SANTA_LEONOR,28037,"446613,56","446613,56-4476199,45","4476199,45",Abierto,MANHATTAN,Anual,Abierta,"28,08","28,08",Acera,8:00:00,0:00:00,8:00:00,0:00:00,8:00:00,0:00:00,8:00:00,0:00:00,12,12,40.4345091,"40.4345091,-3.6292756",-3.6292756
200000352,San Blas,https://www.wikidata.org/wiki/Q2001937,Rosas,https://www.wikidata.org/wiki/Q18880469,31 CALLE ESTOCOLMO,31_CALLE_ESTOCOLMO,28022,"449034,55","449034,55-4475292,41","4475292,41",Abierto,CASA MANUELA,Anual,Abierta,"15,68","15,68",Acera,8:00:00,0:00:00,8:00:00,0:00:00,8:00:00,0:00:00,8:00:00,0:00:00,6,6,40.426881,"40.426881,-3.6000276",-3.6000276
200001486,San Blas,https://www.wikidata.org/wiki/Q2001937,Rosas,https://www.wikidata.org/wiki/Q18880469,54 CALLE SUECIA,54_CALLE_SUECIA,28022,"448734,55","448734,55-4475335,42","4475335,42",Abierto,METROPOLI,Anual,Abierta,"42,82","42,82",Acera,8:00:00,1:30:00,8:00:00,1:00:00,8:00:00,1:30:00,8:00:00,1:00:00,8,10,40.4271316,"40.4271316,-3.6043647",-3.6043647
270529172,San Blas,https://www.wikidata.org/wiki/Q2001937,Rosas,https://www.wikidata.org/wiki/Q18880469,13 CALLE ALPES,13_CALLE_ALPES,28022,"448701,56","448701,56-4475520,42","4475520,42",Abierto,PIAZZA ITALIA,Anual,Abierta,"53,08","53,08",Acera,8:00:00,1:30:00,8:00:00,1:00:00,8:00:00,1:30:00,8:00:00,1:00:00,18,18,40.4283374,"40.4283374,-3.6044389",-3.6044389
200001245,San Blas,https://www.wikidata.org/wiki/Q2001937,Rosas,https://www.wikidata.org/wiki/Q18880469,75 CALLE SUECIA,75_CALLE_SUECIA,28022,"448619,56","448619,56-4475789,42","4475789,42",Abierto,CERVECERÍA EL PEÑÓN,Anual,Abierta,"40,4","40,4",Acera,8:00:00,0:00:00,8:00:00,0:00:00,8:00:00,0:00:00,8:00:00,0:00:00,6,16,40.4312504,"40.4312504,-3.6056968",-3.6056968
200000816,San Blas,https://www.wikidata.org/wiki/Q2001937,Canillejas,https://www.wikidata.org/wiki/Q663013,25 CALLE TORRE ARIAS,25_CALLE_TORRE_ARIAS,28022,"448173,57","448173,57-4477359,43","4477359,43",Abierto,CAFETERIA  VAPORETTO,Anual,Abierta,"31,08","31,08",Plaza peatonal,8:00:00,1:30:00,8:00:00,1:00:00,8:00:00,1:30:00,8:00:00,1:00:00,8,8,40.4453474,"40.4453474,-3.611212",-3.611212
270359578,San Blas,https://www.wikidata.org/wiki/Q2001937,Simancas,https://www.wikidata.org/wiki/Q10371626,37 CALLE VALDECANILLAS,37_CALLE_VALDECANILLAS,28037,"446813,56","446813,56-4475885,45","4475885,45",Abierto,EL RINCON DEL JAMON,Anual,Abierta,"53,76","53,76",Acera,8:00:00,1:00:00,8:00:00,1:00:00,8:00:00,1:00:00,8:00:00,1:00:00,18,18,40.4320019,"40.4320019,-3.6270641",-3.6270641
200001275,San Blas,https://www.wikidata.org/wiki/Q2001937,Simancas,https://www.wikidata.org/wiki/Q10371626,13 CALLE MIERES,13_CALLE_MIERES,28037,"446585,56","446585,56-4475576,45","4475576,45",Abierto,RESTAURANTE,Anual,Abierta,"24,3","24,3",Calle peatonal,8:00:00,1:30:00,8:00:00,1:00:00,8:00:00,1:30:00,8:00:00,1:00:00,3,3,40.4290821,"40.4290821,-3.6298464",-3.6298464
285016399,Fuencarral-El Pardo,https://www.wikidata.org/wiki/Q656196,Valverde,https://www.wikidata.org/wiki/Q31132,4 CALLE CAPISCOL,4_CALLE_CAPISCOL,28050,"442831,63","442831,63-4484364,53","4484364,53",Abierto,CERVECERÍA BAMBERG,Anual,Abierta,"47,64","32,96",Acera,10:00:00,1:00:00,10:00:00,0:00:00,10:00:00,2:30:00,10:00:00,0:00:00,19,10,40.507874,"40.507874,-3.6749409",-3.6749409
270553981,Barajas,https://www.wikidata.org/wiki/Q807230,Corralejos,https://www.wikidata.org/wiki/Q10260772,2 PASEO DOCE ESTRELLAS,2_PASEO_DOCE_ESTRELLAS,28042,"447727,58","447727,58-4479147,44","4479147,44",Abierto,COZINA,Anual,Abierta,"52,25","38,14",Acera,8:00:00,1:30:00,8:00:00,1:00:00,8:00:00,1:30:00,8:00:00,1:00:00,18,18,40.4613687,"40.4613687,-3.6162793",-3.6162793
280007506,Centro,https://www.wikidata.org/wiki/Q1763376,Palacio,https://www.wikidata.org/wiki/Q2136510,10 CALLE CUCHILLEROS,10_CALLE_CUCHILLEROS,28005,"439912,59","439912,59-4473957,53","4473957,53",Abierto,CANTINA LA TRAVIESA,Anual,Abierta,"9,07",9,Acera,10:00:00,0:30:00,10:00:00,23:00:00,10:00:00,2:00:00,10:00:00,23:00:00,6,6,40.4141282,"40.4141282,-3.7082322",-3.7082322
270354508,Villaverde,https://www.wikidata.org/wiki/Q919536,Los Ángeles,https://www.wikidata.org/wiki/Q390462,13 CALLE LA CORTE DE FARAON,13_CALLE_LA_CORTE_DE_FARAON,28041,"440839,55","440839,55-4468098,51","4468098,51",Abierto,FARAON,Anual,Abierta,"50,52","50,52",Superficie en parcela privada,10:00:00,0:00:00,10:00:00,0:00:00,10:00:00,0:00:00,10:00:00,0:00:00,8,8,40.3613351,"40.3613351,-3.6966769",-3.6966769
270541050,Salamanca,https://www.wikidata.org/wiki/Q1773521,Goya,https://www.wikidata.org/wiki/Q3814578,28 AVENIDA FELIPE II,28_AVENIDA_FELIPE_II,28009,"442835,58","442835,58-4475002,5","4475002,5",Abierto,LIZARRAN,Anual,Abierta,"42,84","42,84",Plaza peatonal,10:00:00,1:00:00,10:00:00,0:00:00,10:00:00,2:30:00,10:00:00,0:00:00,6,6,40.4237104,"40.4237104,-3.6738976",-3.6738976
50001180,Chamartín,https://www.wikidata.org/wiki/Q1766348,Hispanoamérica,https://www.wikidata.org/wiki/Q3814573,26 AVENIDA ALBERTO ALCOCER,26_AVENIDA_ALBERTO_ALCOCER,28036,"441993,6","441993,6-4478871,52","4478871,52",Abierto,OFICINA DESPACHO TECNICO,Anual,Abierta,"30,13","30,13",Acera,10:00:00,1:00:00,10:00:00,0:00:00,10:00:00,2:30:00,10:00:00,0:00:00,9,9,40.458501,"40.458501,-3.6842518",-3.6842518
270491022,Salamanca,https://www.wikidata.org/wiki/Q1773521,La Guindalera,https://www.wikidata.org/wiki/Q3814559,9 CALLE MARIA TERESA,9_CALLE_MARIA_TERESA,28028,"443243,58","443243,58-4476368,5","4476368,5",Abierto,FRESNO,Anual,Abierta,"21,16","21,16",Acera,8:00:00,1:30:00,8:00:00,1:00:00,8:00:00,1:30:00,8:00:00,1:00:00,12,12,40.43608,"40.43608,-3.6689529",-3.6689529
270244013,Salamanca,https://www.wikidata.org/wiki/Q1773521,Goya,https://www.wikidata.org/wiki/Q3814578,7 CALLE FERNAN GONZALEZ,7_CALLE_FERNAN_GONZALEZ,28009,"442818,58","442818,58-4475079,5","4475079,5",Abierto,EL RINCON DE DALI,Anual,Abierta,"5,23","5,23",Acera,10:00:00,1:00:00,10:00:00,0:00:00,10:00:00,2:30:00,10:00:00,0:00:00,9,9,40.4244036,"40.4244036,-3.6739506",-3.6739506
270377715,Salamanca,https://www.wikidata.org/wiki/Q1773521,Goya,https://www.wikidata.org/wiki/Q3814578,147 CALLE ALCALA,147_CALLE_ALCALA,28009,"442582,58","442582,58-4475088,51","4475088,51",Abierto,LA JARRA Y LA PIPA,Anual,Abierta,"26,1","26,1",Acera,8:00:00,1:30:00,8:00:00,1:00:00,8:00:00,1:30:00,8:00:00,1:00:00,15,15,40.4244999,"40.4244999,-3.6767672",-3.6767672
40002353,Salamanca,https://www.wikidata.org/wiki/Q1773521,Goya,https://www.wikidata.org/wiki/Q3814578,34 AVENIDA FELIPE II,34_AVENIDA_FELIPE_II,28009,"442923,58","442923,58-4475005,5","4475005,5",Abierto,MANDARIZ CAFE,Anual,Abierta,"59,4","59,4",Plaza peatonal,8:00:00,1:30:00,8:00:00,1:00:00,8:00:00,1:30:00,8:00:00,1:00:00,20,20,40.4236642,"40.4236642,-3.6728215",-3.6728215
270492263,Arganzuela,https://www.wikidata.org/wiki/Q2000929,Palos de Moguer,https://www.wikidata.org/wiki/Q521009,50 CALLE GENERAL LACY,50_CALLE_GENERAL_LACY,28045,"441350,58","441350,58-4472506,52","4472506,52",Abierto,CASA EGIDO,Anual,Abierta,"18,85","18,85",Acera,10:00:00,1:00:00,10:00:00,0:00:00,10:00:00,2:30:00,10:00:00,0:00:00,6,6,40.4010705,"40.4010705,-3.6912668",-3.6912668
270478944,Arganzuela,https://www.wikidata.org/wiki/Q2000929,La Chopera,https://www.wikidata.org/wiki/Q3773750,2 PLAZA GENERAL MAROTO,2_PLAZA_GENERAL_MAROTO,28045,"440765,58","440765,58-4471722,52","4471722,52",Abierto,RESTAURANTE EL LUCA,Anual,Abierta,"75,18","75,18",Acera,8:00:00,1:30:00,8:00:00,1:00:00,8:00:00,1:30:00,8:00:00,1:00:00,16,16,40.3940102,"40.3940102,-3.6979273",-3.6979273
20001104,Arganzuela,https://www.wikidata.org/wiki/Q2000929,Legazpi,https://www.wikidata.org/wiki/Q3773990,2 CALLE MANUEL ALEIXANDRE,2_CALLE_MANUEL_ALEIXANDRE,28045,"441075,58","441075,58-4471375,52","4471375,52",Abierto,NEMRUT DÖNER KEBAP,Anual,Abierta,"5,76","5,76",Acera,10:00:00,1:00:00,10:00:00,0:00:00,10:00:00,2:30:00,10:00:00,0:00:00,4,4,40.3910076,"40.3910076,-3.6942914",-3.6942914
280017942,Arganzuela,https://www.wikidata.org/wiki/Q2000929,Palos de Moguer,https://www.wikidata.org/wiki/Q521009,32 CALLE MURCIA,32_CALLE_MURCIA,28045,"441383,58","441383,58-4472937,52","4472937,52",Abierto,EL PRINCIPADO,Anual,Abierta,"43,2","43,2",Acera,10:00:00,1:00:00,10:00:00,0:00:00,10:00:00,2:30:00,10:00:00,0:00:00,15,15,40.4049598,"40.4049598,-3.6908903",-3.6908903
285005703,Arganzuela,https://www.wikidata.org/wiki/Q2000929,Las Delicias,https://www.wikidata.org/wiki/Q3773736,2 CALLE MEZQUITE,2_CALLE_MEZQUITE,28045,"441985,58","441985,58-4472018,51","4472018,51",Abierto,PAQUITA BAR RESTAURANTE,Anual,Abierta,"61,07","61,07",Acera,10:00:00,1:00:00,10:00:00,0:00:00,10:00:00,2:30:00,10:00:00,0:00:00,20,20,40.3969326,"40.3969326,-3.682787",-3.682787
270484266,Arganzuela,https://www.wikidata.org/wiki/Q2000929,Imperial,https://www.wikidata.org/wiki/Q3773740,14 CALLE JUAN DUQUE,14_CALLE_JUAN_DUQUE,28005,"438949,6","438949,6-4473835,54","4473835,54",Abierto,OBREOGAN,Anual,Abierta,"9,13","9,13",Acera,10:00:00,1:00:00,10:00:00,0:00:00,10:00:00,2:30:00,10:00:00,0:00:00,4,0,40.4129566,"40.4129566,-3.7195543",-3.7195543
270501894,San Blas,https://www.wikidata.org/wiki/Q2001937,Rosas,https://www.wikidata.org/wiki/Q18880469,23 CALLE CRACOVIA,23_CALLE_CRACOVIA,28022,"448683,55","448683,55-4474956,42","4474956,42",Abierto,LA CRIBA CERVECERIA,Anual,Abierta,"80,58","80,58",Acera,8:00:00,0:00:00,8:00:00,0:00:00,8:00:00,0:00:00,8:00:00,0:00:00,30,30,40.4238284,"40.4238284,-3.606459",-3.606459
20000582,Arganzuela,https://www.wikidata.org/wiki/Q2000929,Palos de Moguer,https://www.wikidata.org/wiki/Q521009,38 PASEO SANTA MARIA DE LA CABEZA,38_PASEO_SANTA_MARIA_DE_LA_CABEZA,28045,"440902,58","440902,58-4472867,52","4472867,52",Abierto,VEN Y VERAS,Anual,Abierta,"45,42","27,25",Acera,10:00:00,1:00:00,10:00:00,0:00:00,10:00:00,2:30:00,10:00:00,0:00:00,17,8,40.4043779,"40.4043779,-3.696443",-3.696443
290000070,Salamanca,https://www.wikidata.org/wiki/Q1773521,Castellana,https://www.wikidata.org/wiki/Q4781,115 CALLE CASTELLO,115_CALLE_CASTELLO,28006,"442269,59","442269,59-4476457,51","4476457,51",Abierto,MAMA NO LO SABE,Anual,Abierta,"21,29","21,29",Otros,10:00:00,0:00:00,10:00:00,0:00:00,10:00:00,0:00:00,10:00:00,0:00:00,6,6,40.4364289,"40.4364289,-3.6807545",-3.6807545
50000971,Chamartín,https://www.wikidata.org/wiki/Q1766348,Valdepeñas Ciudad Real,https://www.wikidata.org/wiki/Q4778,197 CALLE SERRANO,197_CALLE_SERRANO,28002,"442186,59","442186,59-4478090,52","4478090,52",Abierto,FIAT CAFE,Anual,Abierta,44,44,Acera,8:00:00,1:30:00,8:00:00,1:00:00,8:00:00,1:30:00,8:00:00,1:00:00,8,8,40.4514303,"40.4514303,-3.6818524",-3.6818524
285020496,Latina,https://www.wikidata.org/wiki/Q794954,Barrio de Puerta del Ángel,https://www.wikidata.org/wiki/Q31142,155 AVENIDA PORTUGAL,155_AVENIDA_PORTUGAL,28011,"437403,61","437403,61-4473660,55","4473660,55",Abierto,BAR,Anual,Abierta,"12,92",292,Acera,10:00:00,0:00:00,10:00:00,0:00:00,10:00:00,0:30:00,10:00:00,0:30:00,4,4,40.4112754,"40.4112754,-3.7377461",-3.7377461
100001049,Latina,https://www.wikidata.org/wiki/Q794954,Barrio de Puerta del Ángel,https://www.wikidata.org/wiki/Q31142,60 PASEO EXTREMADURA,60_PASEO_EXTREMADURA,28011,"438031,61","438031,61-4473865,55","4473865,55",Abierto,"CAFETERIA, PANADERIA, PASTELERIA",Anual,Abierta,"7,5","7,5",Acera,10:00:00,1:00:00,21:00:00,0:00:00,10:00:00,21:00:00,21:00:00,0:00:00,2,2,40.4131784,"40.4131784,-3.7303988",-3.7303988
270525122,Latina,https://www.wikidata.org/wiki/Q794954,Las Águilas,https://www.wikidata.org/wiki/Q5971372,3 CALLE GUAREÑA,3_CALLE_GUAREÑA,28044,"435009,62","435009,62-4471135,57","4471135,57",Abierto,CERVECERIA GAMBRINUS ALUCHE,Anual,Abierta,38,38,Acera,8:00:00,1:30:00,8:00:00,1:00:00,8:00:00,1:30:00,8:00:00,1:00:00,11,11,40.3882763,"40.3882763,-3.7657131",-3.7657131
20000844,Arganzuela,https://www.wikidata.org/wiki/Q2000929,Legazpi,https://www.wikidata.org/wiki/Q3773990,8 PASEO MOLINO,8_PASEO_MOLINO,28045,"441194,58","441194,58-4471247,52","4471247,52",Abierto,LA TXASKA ETXEA,Anual,Abierta,"12,81","12,81",Zona de estacionamiento,8:00:00,23:00:00,8:00:00,23:00:00,8:00:00,23:00:00,8:00:00,23:00:00,4,4,40.3895501,"40.3895501,-3.6927134",-3.6927134
20000605,Arganzuela,https://www.wikidata.org/wiki/Q2000929,Imperial,https://www.wikidata.org/wiki/Q3773740,6 GLORIETA PIRAMIDES,6_GLORIETA_PIRAMIDES,28005,"439316,59","439316,59-4472540,53","4472540,53",Abierto,CAFETERIA PIRAMIDES,Anual,Abierta,27,27,Acera,10:00:00,1:00:00,10:00:00,0:00:00,10:00:00,2:30:00,10:00:00,0:00:00,10,10,40.4013216,"40.4013216,-3.7151508",-3.7151508
20001935,Arganzuela,https://www.wikidata.org/wiki/Q2000929,Las Delicias,https://www.wikidata.org/wiki/Q3773736,2 CALLE ISIDORO ALVAREZ ALVAREZ,2_CALLE_ISIDORO_ALVAREZ_ALVAREZ,28045,"441422,58","441422,58-4471699,52","4471699,52",Abierto,SMALL COFFE DRINK,Anual,Abierta,"17,28","17,28",Acera,10:00:00,1:00:00,10:00:00,0:00:00,10:00:00,2:30:00,10:00:00,0:00:00,5,5,40.3941801,"40.3941801,-3.6906447",-3.6906447
285004392,Arganzuela,https://www.wikidata.org/wiki/Q2000929,Las Acacias,https://www.wikidata.org/wiki/Q3319190,3 GLORIETA PUERTA DE TOLEDO,3_GLORIETA_PUERTA_DE_TOLEDO,28005,"439631,59","439631,59-4473072,53","4473072,53",Abierto,CERVECERÍA 100 MONTADITOS,Anual,Abierta,"81,18","81,18",Acera,10:00:00,1:00:00,10:00:00,0:00:00,10:00:00,2:30:00,10:00:00,0:00:00,22,22,40.4060899,"40.4060899,-3.7115008",-3.7115008
20000182,Arganzuela,https://www.wikidata.org/wiki/Q2000929,Imperial,https://www.wikidata.org/wiki/Q3773740,4 GLORIETA PUERTA DE TOLEDO,4_GLORIETA_PUERTA_DE_TOLEDO,28005,"439566,59","439566,59-4473090,53","4473090,53",Cerrado,CAFÉ Y TÉ,Anual,Abierta,"91,93","91,93",Acera,10:00:00,1:00:00,10:00:00,0:00:00,10:00:00,2:30:00,10:00:00,0:00:00,27,27,40.4063161,"40.4063161,-3.7122491",-3.7122491
20000446,Arganzuela,https://www.wikidata.org/wiki/Q2000929,Palos de Moguer,https://www.wikidata.org/wiki/Q521009,2 PASEO SANTA MARIA DE LA CABEZA,2_PASEO_SANTA_MARIA_DE_LA_CABEZA,28045,"441117,58","441117,58-4473170,52","4473170,52",Abierto,BURGER KING,Anual,Abierta,"37,53","37,53",Acera,8:00:00,1:30:00,8:00:00,1:00:00,8:00:00,1:30:00,8:00:00,1:00:00,10,10,40.407005,"40.407005,-3.6940793",-3.6940793
270218168,Arganzuela,https://www.wikidata.org/wiki/Q2000929,Palos de Moguer,https://www.wikidata.org/wiki/Q521009,23 PASEO SANTA MARIA DE LA CABEZA,23_PASEO_SANTA_MARIA_DE_LA_CABEZA,28045,"441022,58","441022,58-4472973,52","4472973,52",Abierto,BAR EL SOTANILLO,Anual,Abierta,"19,44","19,44",Acera,10:00:00,1:00:00,10:00:00,0:00:00,10:00:00,2:30:00,10:00:00,0:00:00,6,6,40.4052391,"40.4052391,-3.695114",-3.695114
280018582,Arganzuela,https://www.wikidata.org/wiki/Q2000929,Las Acacias,https://www.wikidata.org/wiki/Q3319190,20 RONDA TOLEDO,20_RONDA_TOLEDO,28005,"440032,59","440032,59-4472979,53","4472979,53",Abierto,MESON VALLE DEL JERTE,Anual,Abierta,"73,8","73,8",Acera,10:00:00,1:00:00,10:00:00,0:00:00,10:00:00,2:30:00,10:00:00,0:00:00,19,19,40.4055298,"40.4055298,-3.7064103",-3.7064103
270263160,Villaverde,https://www.wikidata.org/wiki/Q919536,Los Rosales,https://www.wikidata.org/wiki/Q10319807,2 CALLE JOSE DEL PINO,2_CALLE_JOSE_DEL_PINO,28021,"441228,53","441228,53-4466903,5","4466903,5",Abierto,CERVECERIA RESTAURANTE LA PARADA,Anual,Abierta,"17,64","17,64",Acera,8:00:00,1:30:00,8:00:00,1:00:00,8:00:00,1:30:00,8:00:00,1:00:00,6,6,40.3506382,"40.3506382,-3.6919231",-3.6919231
270481743,Vicálvaro,https://www.wikidata.org/wiki/Q589403,Casco Histórico de Vicálvaro,https://www.wikidata.org/wiki/Q16544374,23 CALLE CALAHORRA,23_CALLE_CALAHORRA,28032,"447924,55","447924,55-4473046,43","4473046,43",Abierto,"BAR LA TUNA, CALAHORRA 23",Anual,Abierta,"12,75","12,75",Acera,8:00:00,1:00:00,8:00:00,0:00:00,8:00:00,2:30:00,8:00:00,0:00:00,4,0,40.4063492,"40.4063492,-3.6136359",-3.6136359
270306989,Salamanca,https://www.wikidata.org/wiki/Q1773521,La Guindalera,https://www.wikidata.org/wiki/Q3814559,2 CALLE BRESCIA,2_CALLE_BRESCIA,28028,"443621,58","443621,58-4476402,49","4476402,49",Abierto,MEMPHIS COCKTAIL BAR,Anual,Abierta,"31,05","31,05",Acera,8:00:00,1:30:00,8:00:00,1:00:00,8:00:00,1:30:00,8:00:00,1:00:00,8,8,40.436392,"40.436392,-3.6647144",-3.6647144
270360388,Salamanca,https://www.wikidata.org/wiki/Q1773521,La Guindalera,https://www.wikidata.org/wiki/Q3814559,4 GLORIETA CAMPANAR,4_GLORIETA_CAMPANAR,28028,"443398,58","443398,58-4475827,5","4475827,5",Abierto,CAFETERA JARA,Anual,Abierta,"17,62","17,62",Acera,8:00:00,1:30:00,8:00:00,1:00:00,8:00:00,1:30:00,8:00:00,1:00:00,9,9,40.4310937,"40.4310937,-3.6672951",-3.6672951
270507681,Salamanca,https://www.wikidata.org/wiki/Q1773521,Goya,https://www.wikidata.org/wiki/Q3814578,140 CALLE ALCALA,140_CALLE_ALCALA,28009,"443155,58","443155,58-4475394,5","4475394,5",Abierto,CAFETERIA NUMAR,Anual,Abierta,"16,22","16,22",Acera,10:00:00,1:00:00,10:00:00,0:00:00,10:00:00,2:30:00,10:00:00,0:00:00,8,8,40.4272273,"40.4272273,-3.6702245",-3.6702245
270440167,Salamanca,https://www.wikidata.org/wiki/Q1773521,Goya,https://www.wikidata.org/wiki/Q3814578,10 AVENIDA FELIPE II,10_AVENIDA_FELIPE_II,28009,"442620,58","442620,58-4475018,51","4475018,51",Abierto,CAFETERIA EL TREBOL,Anual,Abierta,"45,85","45,85",Acera,8:00:00,1:30:00,8:00:00,1:00:00,8:00:00,1:30:00,8:00:00,1:00:00,29,29,40.4237921,"40.4237921,-3.6763079",-3.6763079
50001969,Chamartín,https://www.wikidata.org/wiki/Q1766348,Castilla,https://www.wikidata.org/wiki/Q3813735,274 PASEO CASTELLANA,274_PASEO_CASTELLANA,28046,"441808,61","441808,61-4480633,53","4480633,53",Abierto,RODILLA,Anual,Abierta,"35,4","35,4",Acera,10:00:00,1:00:00,10:00:00,0:00:00,10:00:00,2:30:00,10:00:00,0:00:00,12,12,40.4744207,"40.4744207,-3.6865291",-3.6865291
270017643,Arganzuela,https://www.wikidata.org/wiki/Q2000929,Palos de Moguer,https://www.wikidata.org/wiki/Q521009,34 PASEO SANTA MARIA DE LA CABEZA,34_PASEO_SANTA_MARIA_DE_LA_CABEZA,28045,"440916,58","440916,58-4472888,52","4472888,52",Abierto,CERVECERÍA MAVI,Anual,Abierta,"35,1","35,1",Acera,10:00:00,1:00:00,10:00:00,0:00:00,10:00:00,2:30:00,10:00:00,0:00:00,10,10,40.4045289,"40.4045289,-3.6963003",-3.6963003
270193865,Arganzuela,https://www.wikidata.org/wiki/Q2000929,Palos de Moguer,https://www.wikidata.org/wiki/Q521009,56 PASEO SANTA MARIA DE LA CABEZA,56_PASEO_SANTA_MARIA_DE_LA_CABEZA,28045,"440728,59","440728,59-4472625,52","4472625,52",Abierto,CERVECERIA HAVANA BLUES,Anual,Abierta,"41,16","41,16",Acera,10:00:00,1:00:00,10:00:00,0:00:00,10:00:00,2:30:00,10:00:00,0:00:00,12,12,40.402185,"40.402185,-3.698523",-3.698523
270054570,Arganzuela,https://www.wikidata.org/wiki/Q2000929,Las Acacias,https://www.wikidata.org/wiki/Q3319190,2 RONDA TOLEDO,2_RONDA_TOLEDO,28005,"439673,59","439673,59-4473101,53","4473101,53",Abierto,BAR EL PESCADOR CERVECERIA,Anual,Abierta,"45,29","45,29",Acera,10:00:00,1:00:00,10:00:00,0:00:00,10:00:00,2:30:00,10:00:00,0:00:00,14,14,40.4063123,"40.4063123,-3.7109484",-3.7109484
20001073,Arganzuela,https://www.wikidata.org/wiki/Q2000929,La Chopera,https://www.wikidata.org/wiki/Q3773750,15 CALLE TORRES MIRANDA,15_CALLE_TORRES_MIRANDA,28045,"440598,58","440598,58-4472172,52","4472172,52",Abierto,CAFETERIA TRANSMONTANO,Anual,Abierta,"10,4","10,4",Acera,10:00:00,1:00:00,10:00:00,0:00:00,10:00:00,2:30:00,10:00:00,0:00:00,4,4,40.3980344,"40.3980344,-3.6998711",-3.6998711
270405399,Arganzuela,https://www.wikidata.org/wiki/Q2000929,Palos de Moguer,https://www.wikidata.org/wiki/Q521009,10 CALLE TORTOSA,10_CALLE_TORTOSA,28045,"441274,58","441274,58-4473055,52","4473055,52",Abierto,ARROCERIA PUERTA DE ATOCHA,Anual,Abierta,"16,48","16,48",Acera,10:00:00,1:00:00,10:00:00,0:00:00,10:00:00,2:30:00,10:00:00,0:00:00,8,8,40.4060125,"40.4060125,-3.6922061",-3.6922061
20000492,Arganzuela,https://www.wikidata.org/wiki/Q2000929,Imperial,https://www.wikidata.org/wiki/Q3773740,47 PASEO VIRGEN DEL PUERTO,47_PASEO_VIRGEN_DEL_PUERTO,28005,"438821,6","438821,6-4473410,54","4473410,54",Abierto,POR DEFINIR,Anual,Abierta,"25,92","25,92",Acera,8:00:00,1:30:00,8:00:00,1:00:00,8:00:00,1:30:00,8:00:00,1:00:00,8,8,40.4089123,"40.4089123,-3.72099",-3.72099
270531806,Arganzuela,https://www.wikidata.org/wiki/Q2000929,Imperial,https://www.wikidata.org/wiki/Q3773740,61 PASEO VIRGEN DEL PUERTO,61_PASEO_VIRGEN_DEL_PUERTO,28005,"438733,6","438733,6-4472973,54","4472973,54",Abierto,LA ESQUINA DEL CALDERON,Anual,Abierta,"24,93","24,93",Acera,10:00:00,1:00:00,10:00:00,0:00:00,10:00:00,2:30:00,10:00:00,0:00:00,8,8,40.4050768,"40.4050768,-3.7218946",-3.7218946
20000708,Arganzuela,https://www.wikidata.org/wiki/Q2000929,Las Acacias,https://www.wikidata.org/wiki/Q3319190,15 PASEO YESERIAS,15_PASEO_YESERIAS,28005,"439701,59","439701,59-4472413,53","4472413,53",Abierto,TABERNA FANTASTICA,Anual,Abierta,"59,95","28,45",Acera,10:00:00,1:00:00,10:00:00,0:00:00,10:00:00,2:30:00,10:00:00,0:00:00,19,9,40.3996062,"40.3996062,-3.7105284",-3.7105284
270378436,Arganzuela,https://www.wikidata.org/wiki/Q2000929,Las Acacias,https://www.wikidata.org/wiki/Q3319190,33 PASEO YESERIAS,33_PASEO_YESERIAS,28005,"439886,59","439886,59-4472225,53","4472225,53",Abierto,CAFE DOMAR,Anual,Abierta,"16,38","16,38",Acera,10:00:00,1:00:00,10:00:00,0:00:00,10:00:00,2:30:00,10:00:00,0:00:00,7,7,40.39852,"40.39852,-3.708252",-3.708252
270543893,Villa de Vallecas,https://www.wikidata.org/wiki/Q1947988,Casco Histórico de Vallecas,https://www.wikidata.org/wiki/Q16544370,5 CALLE CULLA,5_CALLE_CULLA,28031,"447432,52","447432,52-4468996,43","4468996,43",Abierto,BAR LAS TAPAS,Anual,Abierta,"51,84","51,84",Bulevar,10:00:00,1:00:00,10:00:00,0:00:00,10:00:00,2:30:00,10:00:00,0:00:00,16,16,40.3697575,"40.3697575,-3.6191393",-3.6191393
270543037,Fuencarral-El Pardo,https://www.wikidata.org/wiki/Q656196,Valverde,https://www.wikidata.org/wiki/Q31132,21 CALLE TOQUES,21_CALLE_TOQUES,28050,"443418,63","443418,63-4484493,52","4484493,52",Abierto,GOIKO GRILL,Anual,Abierta,"40,74","40,74",Acera,8:00:00,1:30:00,8:00:00,1:00:00,8:00:00,1:30:00,8:00:00,1:00:00,11,11,40.5090275,"40.5090275,-3.6678778",-3.6678778
270488117,Salamanca,https://www.wikidata.org/wiki/Q1773521,Goya,https://www.wikidata.org/wiki/Q3814578,53 CALLE O'DONNELL,53_CALLE_O'DONNELL,28009,"442990,58","442990,58-4474755,5","4474755,5",Abierto,JACARANDA,Estacional,Abierta,"14,62","13,59",Acera,10:00:00,1:00:00,10:00:00,0:00:00,10:00:00,2:30:00,10:00:00,0:00:00,6,6,40.421694,"40.421694,-3.6722668",-3.6722668
270225437,Salamanca,https://www.wikidata.org/wiki/Q1773521,La Guindalera,https://www.wikidata.org/wiki/Q3814559,1 CALLE BIARRITZ,1_CALLE_BIARRITZ,28028,"443664,58","443664,58-4476298,49","4476298,49",Abierto,CAFETERIA CERVECERIA BIARRITZ,Anual,Abierta,"28,58","28,58",Acera,10:00:00,1:00:00,10:00:00,0:00:00,10:00:00,2:30:00,10:00:00,0:00:00,7,7,40.4355194,"40.4355194,-3.6641942",-3.6641942
110001307,Carabanchel,https://www.wikidata.org/wiki/Q1001991,Vista Alegre,https://www.wikidata.org/wiki/Q3813741,86 AVENIDA NUESTRA SEÑORA DE FATIMA,86_AVENIDA_NUESTRA_SEÑORA_DE_FATIMA,28047,"436483,6","436483,6-4470374,55","4470374,55",Abierto,PASAME LA HOOKAH,Anual,Abierta,"95,95","95,95",Superficie en parcela privada,10:00:00,1:00:00,10:00:00,0:00:00,10:00:00,2:30:00,10:00:00,0:00:00,14,14,40.3815804,"40.3815804,-3.7482296",-3.7482296
270087195,Chamartín,https://www.wikidata.org/wiki/Q1766348,Valdepeñas Ciudad Real,https://www.wikidata.org/wiki/Q4778,111 CALLE PRINCIPE DE VERGARA,111_CALLE_PRINCIPE_DE_VERGARA,28002,"442401,59","442401,59-4476815,51","4476815,51",Abierto,PUB FANNY,Anual,Abierta,"12,32","12,32",Acera,10:00:00,1:00:00,10:00:00,0:00:00,10:00:00,2:30:00,10:00:00,0:00:00,8,8,40.4400139,"40.4400139,-3.6791596",-3.6791596
